"","id","nm","lat","lon","countryCode","cityid","g","dt_txt","temp","pressure","humidity","temp_min","temp_max","weather_id","weather_main","weather_description","weather_icon","wind_speed","wind_deg","clouds_all","visibility","dt","name","coord_lon","coord_lat","sys_country","sys_timezone","sys_sunrise","sys_sunset","feels_like","sea_level","grnd_level"
"1",3515302,"Toluca",19.28833,-99.667221,"MX","MXtoluca",1,"2020-04-30 12:14:42",289.15,1032,51,289.15,289.15,801,"Clouds","few clouds","02d",2.1,280,20,11265,1588266882,"Toluca",-99.67,19.29,"MX",-18000,1588248632,1588294854,286.73,NA,NA
"2",3676623,"Leticia",-4.21528,-69.940559,"CO","COleticia",2,"2020-04-30 12:14:58",299.17,1016,88,298.15,300.15,803,"Clouds","broken clouds","04d",2.6,260,75,10000,1588266898,"Leticia",-69.94,-4.22,"CO",-18000,1588243073,1588286144,303.09,NA,NA
"3",3665900,"Villavicencio",4.142,-73.62664,"CO","COvillavicencio",3,"2020-04-30 12:14:53",302.15,1016,70,302.15,302.15,802,"Clouds","scattered clouds","03d",2.17,100,40,10000,1588266893,"Villavicencio",-73.63,4.14,"CO",-18000,1588243421,1588287567,305.85,NA,NA
"4",3668605,"Santa Marta",11.24079,-74.199043,"CO","COsanta marta",4,"2020-04-30 12:14:53",302.15,1013,74,302.15,302.15,803,"Clouds","broken clouds","04d",3.6,260,75,10000,1588266893,"Santa Marta",-74.2,11.24,"CO",-18000,1588243089,1588288173,305.38,NA,NA
"5",3688689,"Bogota",4.60971,-74.081749,"CO","CObogota",5,"2020-04-30 12:14:58",294.15,1029,46,294.15,294.15,803,"Clouds","broken clouds","04d",3.6,110,75,10000,1588266898,"Bogota",-74.08,4.61,"CO",-18000,1588243498,1588287706,291.4,NA,NA
"6",3981609,"Tijuana",32.533329,-117.01667,"MX","MXtijuana",6,"2020-04-30 12:15:13",292.24,1014,82,291.15,293.15,721,"Haze","haze","50d",1.57,221,75,8047,1588266913,"Tijuana",-117.02,32.53,"MX",-25200,1588251694,1588300119,293.11,NA,NA
"7",4006702,"Ensenada",31.866671,-116.616669,"MX","MXensenada",7,"2020-04-30 12:15:13",293.15,1013,83,293.15,293.15,804,"Clouds","overcast clouds","04d",1.34,334,100,NA,1588266913,"Ensenada",-116.62,31.87,"MX",-25200,1588251661,1588299961,294.6,NA,NA
"8",3995465,"Monterrey",25.66667,-100.316673,"MX","MXmonterrey",8,"2020-04-30 12:15:13",295.49,1023,53,294.82,297.15,803,"Clouds","broken clouds","04d",3.1,140,75,19312,1588266913,"Monterrey",-100.32,25.67,"MX",-18000,1588248292,1588295506,294.03,NA,NA
"9",3514783,"Veracruz",19.200001,-96.133331,"MX","MXveracruz",9,"2020-04-30 12:14:42",302.95,1019,62,302.15,303.71,803,"Clouds","broken clouds","04d",5.1,360,75,9656,1588266882,"Veracruz",-96.13,19.2,"MX",-18000,1588247790,1588293998,303.93,NA,NA
"10",3992619,"Piedras Negras",28.700001,-100.51667,"MX","MXpiedras negras",10,"2020-04-30 12:15:13",301.15,1022,37,301.15,301.15,800,"Clear","clear sky","01d",5.1,180,5,16093,1588266913,"Piedras Negras",-100.52,28.7,"MX",-18000,1588248085,1588295810,298.18,NA,NA
"11",4014338,"Chihuahua",28.633329,-106.083328,"MX","MXchihuahua",11,"2020-04-30 12:15:13",297.15,1024,29,297.15,297.15,800,"Clear","clear sky","01d",3.31,160,5,16093,1588266913,"Chihuahua",-106.08,28.63,"MX",-21600,1588249424,1588297139,293.68,NA,NA
"12",4005539,"Guadalajara",20.66667,-103.333328,"MX","MXguadalajara",12,"2020-04-30 12:15:13",297.44,1024,29,297.04,298.15,800,"Clear","clear sky","01d",5.1,80,5,16093,1588266913,"Guadalajara",-103.33,20.67,"MX",-18000,1588249407,1588295836,292.77,NA,NA
"13",3988086,"Saltillo",25.41667,-101,"MX","MXsaltillo",13,"2020-04-30 12:15:13",293.96,1026,63,292.15,294.82,800,"Clear","clear sky","01d",2.6,360,5,16093,1588266913,"Saltillo",-101,25.42,"MX",-18000,1588248476,1588295649,293.24,NA,NA
"14",3526700,"Iztacalco",19.396669,-99.084717,"MX","MXiztacalco",14,"2020-04-30 12:14:49",293.44,1031,37,293.15,293.71,801,"Clouds","few clouds","02d",2.1,80,20,16093,1588266889,"Iztacalco",-99.08,19.4,"MX",-18000,1588248482,1588294721,290.87,NA,NA
"15",3526683,"Iztapalapa",19.35111,-99.051941,"MX","MXiztapalapa",15,"2020-04-30 12:14:49",293.44,1031,37,293.15,293.71,801,"Clouds","few clouds","02d",2.1,80,20,16093,1588266889,"Iztapalapa",-99.05,19.35,"MX",-18000,1588248479,1588294710,290.87,NA,NA
"16",3515428,"Tlalpan",19.283331,-99.166672,"MX","MXtlalpan",16,"2020-04-30 12:14:43",293.45,1031,37,293.15,293.71,801,"Clouds","few clouds","02d",2.1,80,20,16093,1588266883,"Tlalpan",-99.17,19.28,"MX",-18000,1588248513,1588294733,290.88,NA,NA
"17",4011743,"Durango",24.033331,-104.666672,"MX","MXdurango",17,"2020-04-30 12:15:13",295.94,1028,30,295.15,296.48,800,"Clear","clear sky","01d",3.1,110,5,12874,1588266913,"Durango",-104.67,24.03,"MX",-18000,1588249468,1588296418,292.51,NA,NA
"18",3531732,"Campeche",19.85,-90.533333,"MX","MXcampeche",18,"2020-04-30 12:14:49",303.15,1016,70,303.15,303.15,802,"Clouds","scattered clouds","03d",5.1,320,40,9656,1588266889,"Campeche",-90.53,19.85,"MX",-18000,1588246398,1588292702,305.35,NA,NA
"19",3815415,"Tlaxcala",19.31389,-98.241669,"MX","MXtlaxcala",19,"2020-04-30 12:14:59",293.15,1030,37,293.15,293.15,800,"Clear","clear sky","01d",1.5,40,5,17702,1588266899,"Tlaxcala",-98.24,19.31,"MX",-18000,1588248288,1588294512,290.95,NA,NA
"20",3995523,"Monclova",26.9,-101.416672,"MX","MXmonclova",20,"2020-04-30 12:15:13",300.22,1022,64,297.15,302.59,802,"Clouds","scattered clouds","03d",2.21,114,40,16093,1588266913,"Monclova",-101.42,26.9,"MX",-18000,1588248454,1588295872,302.21,NA,NA
"21",4019233,"Aguascalientes",21.883329,-102.300003,"MX","MXaguascalientes",1,"2020-04-30 12:15:13",294.15,1028,28,294.15,294.15,800,"Clear","clear sky","01d",1,270,5,14484,1588266913,"Aguascalientes",-102.3,21.88,"MX",-18000,1588249068,1588295681,291.74,NA,NA
"22",3979844,"Zacatecas",22.775591,-102.572182,"MX","MXzacatecas",2,"2020-04-30 12:15:13",293.15,1027,37,293.15,293.15,802,"Clouds","scattered clouds","03d",5.75,148,40,16093,1588266913,"Zacatecas",-102.57,22.78,"MX",-18000,1588249063,1588295815,287.97,NA,NA
"23",3514785,"Venustiano Carranza",16.35,-92.550003,"MX","MXvenustiano carranza",3,"2020-04-30 12:14:42",305.15,1017,46,305.15,305.15,711,"Smoke","smoke","50d",6.2,300,40,4828,1588266882,"Venustiano Carranza",-92.55,16.35,"MX",-18000,1588247137,1588292932,304,NA,NA
"25",3532497,"Azcapotzalco",19.48889,-99.183609,"MX","MXazcapotzalco",4,"2020-04-30 12:14:49",293.45,1031,37,293.15,293.71,801,"Clouds","few clouds","02d",2.1,80,20,16093,1588266889,"Azcapotzalco",-99.18,19.49,"MX",-18000,1588248500,1588294751,290.88,NA,NA
"26",4005270,"Guanajuato",21.018579,-101.259102,"MX","MXguanajuato",5,"2020-04-30 12:15:13",295.15,1029,40,295.15,295.15,800,"Clear","clear sky","01d",4.6,84,5,16093,1588266913,"Guanajuato",-101.26,21.02,"MX",-18000,1588248884,1588295365,291.41,NA,NA
"27",3520339,"Reynosa",26.08333,-98.283333,"MX","MXreynosa",6,"2020-04-30 12:14:43",301.8,1021,42,300.15,303.15,800,"Clear","clear sky","01d",2.6,130,5,16093,1588266883,"Reynosa",-98.28,26.08,"MX",-18000,1588247769,1588295050,301.4,NA,NA
"28",3988214,"Salamanca",20.566669,-101.199997,"MX","MXsalamanca",7,"2020-04-30 12:15:13",296.63,1029,40,295.15,298.15,800,"Clear","clear sky","01d",5.05,89,5,16093,1588266913,"Salamanca",-101.2,20.57,"MX",-18000,1588248904,1588295317,292.9,NA,NA
"29",3526621,"Jalapa",16.5,-95.466667,"MX","MXjalapa",8,"2020-04-30 12:14:49",308.98,1015,28,308.98,308.98,800,"Clear","clear sky","01d",5.79,14,2,NA,1588266889,"Jalapa",-95.47,16.5,"MX",-18000,1588247827,1588293643,306.34,1015,999
"30",3530517,"Coatzacoalcos",18.15,-94.416672,"MX","MXcoatzacoalcos",9,"2020-04-30 12:14:49",303.15,1016,70,303.15,303.15,804,"Clouds","overcast clouds","04d",5.1,20,90,6437,1588266889,"Coatzacoalcos",-94.42,18.15,"MX",-18000,1588247456,1588293510,305.35,NA,NA
"31",4000900,"La Paz",24.16667,-110.300003,"MX","MXla paz",10,"2020-04-30 12:15:13",299.15,1013,39,299.15,299.15,800,"Clear","clear sky","01d",5.7,180,5,16093,1588266913,"La Paz",-110.3,24.17,"MX",-21600,1588250808,1588297781,295.47,NA,NA
"32",4014875,"Celaya",20.51667,-100.816673,"MX","MXcelaya",11,"2020-04-30 12:15:13",297.33,1028,38,296.48,298.15,800,"Clear","clear sky","01d",5.88,78,0,NA,1588266913,"Celaya",-100.82,20.52,"MX",-18000,1588248816,1588295222,292.99,NA,NA
"33",3996069,"Mexicali",32.651939,-115.46833,"MX","MXmexicali",12,"2020-04-30 12:15:13",300.85,1009,32,300.15,302.15,800,"Clear","clear sky","01d",0.32,68,1,16093,1588266913,"Mexicali",-115.47,32.65,"MX",-25200,1588251311,1588299759,300.54,NA,NA
"34",3526485,"Jiutepec",18.866671,-99.183327,"MX","MXjiutepec",13,"2020-04-30 12:14:49",300.15,1023,32,300.15,300.15,803,"Clouds","broken clouds","04d",3.1,150,75,12874,1588266889,"Jiutepec",-99.18,18.87,"MX",-18000,1588248546,1588294706,297.73,NA,NA
"35",3516355,"Tampico",22.216669,-97.849998,"MX","MXtampico",14,"2020-04-30 12:14:43",301.15,1020,74,301.15,301.15,803,"Clouds","broken clouds","04d",6.7,10,75,9656,1588266883,"Tampico",-97.85,22.22,"MX",-18000,1588247974,1588294639,301.66,NA,NA
"36",4005492,"Guadalupe",25.683331,-100.25,"MX","MXguadalupe",15,"2020-04-30 12:15:13",296.3,1022,64,294.82,297.15,803,"Clouds","broken clouds","04d",6.2,130,75,16093,1588266913,"Guadalupe",-100.25,25.68,"MX",-18000,1588248275,1588295490,293.93,NA,NA
"37",3991328,"Puerto Vallarta",20.620411,-105.230659,"MX","MXpuerto vallarta",16,"2020-04-30 12:15:13",299.15,1013,57,299.15,299.15,800,"Clear","clear sky","01d",1,10,5,24140,1588266913,"Puerto Vallarta",-105.23,20.62,"MX",-18000,1588249867,1588296288,300.75,NA,NA
"38",4018390,"Apodaca",25.76667,-100.199997,"MX","MXapodaca",17,"2020-04-30 12:15:13",296.43,1022,64,294.82,297.15,803,"Clouds","broken clouds","04d",6.2,130,75,16093,1588266913,"Apodaca",-100.2,25.77,"MX",-18000,1588248255,1588295485,294.11,NA,NA
"39",3991043,"Ramos Arizpe",25.549999,-100.966667,"MX","MXramos arizpe",18,"2020-04-30 12:15:13",292.15,1026,63,292.15,292.15,800,"Clear","clear sky","01d",2.6,360,5,16093,1588266913,"Ramos Arizpe",-100.97,25.55,"MX",-18000,1588248458,1588295652,290.89,NA,NA
"40",3522307,"Orizaba",18.85,-97.099998,"MX","MXorizaba",19,"2020-04-30 12:14:43",297.61,1020,36,297.61,297.61,802,"Clouds","scattered clouds","03d",2.97,83,27,NA,1588266883,"Orizaba",-97.1,18.85,"MX",-18000,1588248048,1588294205,295.16,1020,887
"41",3522210,"Pachuca de Soto",20.11697,-98.733292,"MX","MXpachuca de soto",20,"2020-04-30 12:14:43",291.75,1020,24,291.75,291.75,803,"Clouds","broken clouds","04d",3.72,51,51,NA,1588266883,"Pachuca de Soto",-98.73,20.12,"MX",-18000,1588248345,1588294690,286.84,1020,774
"42",4004330,"Irapuato",20.683331,-101.349998,"MX","MXirapuato",1,"2020-04-30 12:15:13",295.15,1029,40,295.15,295.15,800,"Clear","clear sky","01d",5.98,97,5,16093,1588266913,"Irapuato",-101.35,20.68,"MX",-18000,1588248931,1588295361,290.44,NA,NA
"43",3526957,"Huehuetoca",19.84889,-99.20417,"MX","MXhuehuetoca",2,"2020-04-30 12:14:49",293.14,1031,37,289.15,293.71,801,"Clouds","few clouds","02d",2.1,80,20,16093,1588266889,"Huehuetoca",-99.2,19.85,"MX",-18000,1588248478,1588294783,290.52,NA,NA
"44",4018582,"Ameca",20.549999,-104.033333,"MX","MXameca",3,"2020-04-30 12:15:13",300.37,1011,36,300.37,300.37,800,"Clear","clear sky","01d",2.24,112,0,NA,1588266913,"Ameca",-104.03,20.55,"MX",-18000,1588249584,1588295995,299.08,NA,NA
"45",3523303,"Metepec",19.253611,-99.60778,"MX","MXmetepec",4,"2020-04-30 12:14:49",289.15,1032,51,289.15,289.15,801,"Clouds","few clouds","02d",2.1,280,20,11265,1588266889,"Metepec",-99.61,19.25,"MX",-18000,1588248621,1588294837,286.73,NA,NA
"46",3521051,"Puente de Ixtla",18.614719,-99.318062,"MX","MXpuente de ixtla",5,"2020-04-30 12:14:43",302.62,1023,32,300.15,304.82,803,"Clouds","broken clouds","04d",3.1,150,75,12874,1588266883,"Puente de Ixtla",-99.32,18.61,"MX",-18000,1588248598,1588294720,300.78,NA,NA
"47",3516266,"Tapachula",14.9,-92.283333,"MX","MXtapachula",6,"2020-04-30 12:14:43",306.15,1013,52,306.15,306.15,801,"Clouds","few clouds","02d",3.6,250,20,11265,1588266883,"Tapachula",-92.28,14.9,"MX",-18000,1588247175,1588292765,308.23,NA,NA
"48",3988333,"Sabinas",27.85,-101.116669,"MX","MXsabinas",7,"2020-04-30 12:15:13",302.27,1020,22,302.27,302.27,800,"Clear","clear sky","01d",5.81,138,0,NA,1588266913,"Sabinas",-101.12,27.85,"MX",-18000,1588248302,1588295880,297.12,1020,981
"49",3514876,"Valladolid",20.68812,-88.199364,"MX","MXvalladolid",8,"2020-04-30 12:14:42",312.05,1015,30,312.05,312.05,802,"Clouds","scattered clouds","03d",0.56,337,29,NA,1588266882,"Valladolid",-88.2,20.69,"MX",-18000,1588245776,1588292205,314.51,1015,1012
"50",3982266,"Tecate",32.566669,-116.633331,"MX","MXtecate",9,"2020-04-30 12:15:13",292.14,1014,63,291.15,292.59,804,"Clouds","overcast clouds","04d",1.5,80,100,NA,1588266913,"Tecate",-116.63,32.57,"MX",-25200,1588251597,1588300030,291.64,NA,NA
"51",3515904,"Tepeaca",18.966669,-97.900002,"MX","MXtepeaca",10,"2020-04-30 12:14:43",294.64,1030,37,293.15,295.93,800,"Clear","clear sky","01d",1.5,40,5,17702,1588266883,"Tepeaca",-97.9,18.97,"MX",-18000,1588248231,1588294406,292.71,NA,NA
"52",3532792,"Apizaco",19.41667,-98.150002,"MX","MXapizaco",11,"2020-04-30 12:14:49",293.15,1030,37,293.15,293.15,800,"Clear","clear sky","01d",1.5,40,5,17702,1588266889,"Apizaco",-98.15,19.42,"MX",-18000,1588248258,1588294499,290.95,NA,NA
"53",3980605,"Valle de Santiago",20.383329,-101.199997,"MX","MXvalle de santiago",12,"2020-04-30 12:15:13",297.15,1027,36,297.15,297.15,800,"Clear","clear sky","01d",3.6,20,5,12874,1588266913,"Valle de Santiago",-101.2,20.38,"MX",-18000,1588248918,1588295303,294.16,NA,NA
"54",3533005,"Altamira",22.4,-97.916672,"MX","MXaltamira",13,"2020-04-30 12:14:49",301.54,1020,74,301.15,302.04,803,"Clouds","broken clouds","04d",6.7,10,75,9656,1588266889,"Altamira",-97.92,22.4,"MX",-18000,1588247977,1588294669,302.26,NA,NA
"55",4002224,"Lagos de Moreno",21.35,-101.916672,"MX","MXlagos de moreno",14,"2020-04-30 12:15:13",294.61,1028,28,294.15,295.15,800,"Clear","clear sky","01d",1,270,5,14484,1588266913,"Lagos de Moreno",-101.92,21.35,"MX",-18000,1588249017,1588295549,292.27,NA,NA
"56",3981885,"Tequila",20.883329,-103.833328,"MX","MXtequila",15,"2020-04-30 12:15:13",298.57,1011,36,297.04,300.37,800,"Clear","clear sky","01d",2.24,112,0,NA,1588266913,"Tequila",-103.83,20.88,"MX",-18000,1588249511,1588295972,296.85,NA,NA
"57",3526682,"Ixtapaluca",19.316669,-98.883331,"MX","MXixtapaluca",16,"2020-04-30 12:14:49",293.44,1031,37,293.15,293.71,801,"Clouds","few clouds","02d",2.1,80,20,16093,1588266889,"Ixtapaluca",-98.88,19.32,"MX",-18000,1588248440,1588294667,290.87,NA,NA
"58",3827586,"Melchor Ocampo",19.69972,-99.147499,"MX","MXmelchor ocampo",17,"2020-04-30 12:14:59",293.44,1031,37,293.15,293.71,801,"Clouds","few clouds","02d",2.1,80,20,16093,1588266899,"Melchor Ocampo",-99.15,19.7,"MX",-18000,1588248477,1588294760,290.87,NA,NA
"59",3514437,"Xochitepec",18.783331,-99.23333,"MX","MXxochitepec",18,"2020-04-30 12:14:42",300.15,1023,32,300.15,300.15,803,"Clouds","broken clouds","04d",3.1,150,75,12874,1588266882,"Xochitepec",-99.23,18.78,"MX",-18000,1588248564,1588294711,297.73,NA,NA
"60",3527879,"Emiliano Zapata",18.83333,-99.183327,"MX","MXemiliano zapata",19,"2020-04-30 12:14:49",300.15,1023,32,300.15,300.15,803,"Clouds","broken clouds","04d",3.1,150,75,12874,1588266889,"Emiliano Zapata",-99.18,18.83,"MX",-18000,1588248548,1588294703,297.73,NA,NA
"61",3516035,"Temixco",18.85,-99.23333,"MX","MXtemixco",20,"2020-04-30 12:14:43",300.15,1023,32,300.15,300.15,803,"Clouds","broken clouds","04d",3.1,150,75,12874,1588266883,"Temixco",-99.23,18.85,"MX",-18000,1588248559,1588294716,297.73,NA,NA
"62",4005219,"Guasave",25.566669,-108.449997,"MX","MXguasave",1,"2020-04-30 12:15:13",303.08,1009,56,301.48,304.26,800,"Clear","clear sky","01d",0.89,135,0,NA,1588266913,"Guasave",-108.45,25.57,"MX",-21600,1588250251,1588297450,306.24,NA,NA
"63",3526798,"Iguala de la Independencia",18.35,-99.533333,"MX","MXiguala de la independencia",2,"2020-04-30 12:14:49",304.82,1012,27,304.82,304.82,803,"Clouds","broken clouds","04d",1.79,105,73,NA,1588266889,"Iguala de la Independencia",-99.53,18.35,"MX",-18000,1588248668,1588294752,303.71,NA,NA
"64",3523791,"Macuspana",17.76667,-92.599998,"MX","MXmacuspana",3,"2020-04-30 12:14:49",305.15,1017,59,305.15,305.15,721,"Haze","haze","50d",2.6,310,75,4828,1588266889,"Macuspana",-92.6,17.77,"MX",-18000,1588247047,1588293046,308.55,NA,NA
"65",3514321,"Yautepec",18.88188,-99.067146,"MX","MXyautepec",4,"2020-04-30 12:14:42",300.15,1023,32,300.15,300.15,803,"Clouds","broken clouds","04d",3.1,150,75,12874,1588266882,"Yautepec",-99.07,18.88,"MX",-18000,1588248518,1588294680,297.73,NA,NA
"66",3532530,"Ayala",18.75,-98.98333,"MX","MXayala",5,"2020-04-30 12:14:49",300.15,1023,32,300.15,300.15,803,"Clouds","broken clouds","04d",3.1,150,75,12874,1588266889,"Ayala",-98.98,18.75,"MX",-18000,1588248506,1588294649,297.73,NA,NA
"67",4018127,"Arteaga",25.466669,-100.849998,"MX","MXarteaga",6,"2020-04-30 12:15:13",293.9,1026,63,292.15,294.82,800,"Clear","clear sky","01d",2.6,360,5,16093,1588266913,"Arteaga",-100.85,25.47,"MX",-18000,1588248436,1588295617,293.16,NA,NA
"68",3515942,"Teoloyucan",19.74556,-99.183327,"MX","MXteoloyucan",7,"2020-04-30 12:14:43",293.44,1031,37,293.15,293.71,801,"Clouds","few clouds","02d",2.1,80,20,16093,1588266883,"Teoloyucan",-99.18,19.75,"MX",-18000,1588248480,1588294771,290.87,NA,NA
"69",3516271,"Tantoyuca",21.35,-98.23333,"MX","MXtantoyuca",8,"2020-04-30 12:14:43",299.09,1021,77,299.09,299.09,502,"Rain","heavy intensity rain","10d",3.9,54,31,NA,1588266883,"Tantoyuca",-98.23,21.35,"MX",-18000,1588248132,1588294663,300.85,1021,1004
"70",3815326,"Ixtenco",19.25,-97.893059,"MX","MXixtenco",9,"2020-04-30 12:14:59",293.15,1030,37,293.15,293.15,800,"Clear","clear sky","01d",1.5,40,5,17702,1588266899,"Ixtenco",-97.89,19.25,"MX",-18000,1588248208,1588294424,290.95,NA,NA
"71",3526952,"Huejutla de Reyes",21.133329,-98.416672,"MX","MXhuejutla de reyes",10,"2020-04-30 12:14:49",299.25,1021,70,299.25,299.25,501,"Rain","moderate rain","10d",2.51,28,17,NA,1588266889,"Huejutla de Reyes",-98.42,21.13,"MX",-18000,1588248194,1588294692,301.28,1021,994
"72",3521628,"Perote",19.566669,-97.23333,"MX","MXperote",11,"2020-04-30 12:14:43",289.61,1020,33,289.61,289.61,803,"Clouds","broken clouds","04d",3.06,60,78,NA,1588266883,"Perote",-97.23,19.57,"MX",-18000,1588248026,1588294289,285.5,1020,773
"73",3532964,"Alvarado",18.76667,-95.76667,"MX","MXalvarado",12,"2020-04-30 12:14:49",302.97,1019,62,302.15,303.71,803,"Clouds","broken clouds","04d",5.1,360,75,9656,1588266889,"Alvarado",-95.77,18.77,"MX",-18000,1588247735,1588293880,303.96,NA,NA
"74",3516923,"Santiago Suchilquitongo",17.25,-96.883331,"MX","MXsantiago suchilquitongo",13,"2020-04-30 12:14:43",297.15,1026,31,297.15,297.15,801,"Clouds","few clouds","02d",2.1,360,20,19312,1588266883,"Santiago Suchilquitongo",-96.88,17.25,"MX",-18000,1588248112,1588294036,294.72,NA,NA
"75",3518129,"San Pablo Huitzo",17.25,-96.866669,"MX","MXsan pablo huitzo",14,"2020-04-30 12:14:43",297.15,1026,31,297.15,297.15,801,"Clouds","few clouds","02d",2.1,360,20,19312,1588266883,"San Pablo Huitzo",-96.87,17.25,"MX",-18000,1588248109,1588294033,294.72,NA,NA
"76",3801596,"Guadalupe Etla",17.171671,-96.80056,"MX","MXguadalupe etla",15,"2020-04-30 12:14:59",297.15,1026,31,297.15,297.15,801,"Clouds","few clouds","02d",2.1,360,20,19312,1588266899,"Guadalupe Etla",-96.8,17.17,"MX",-18000,1588248098,1588294011,294.72,NA,NA
"77",3517742,"Chiautempan",19.316669,-98.183327,"MX","MXchiautempan",16,"2020-04-30 12:14:43",293.15,1030,37,293.15,293.15,800,"Clear","clear sky","01d",1.5,40,5,17702,1588266883,"Chiautempan",-98.18,19.32,"MX",-18000,1588248272,1588294499,290.95,NA,NA
"78",3530908,"Chignahuapan",19.83333,-98.033333,"MX","MXchignahuapan",17,"2020-04-30 12:14:49",291.19,1020,30,291.19,291.19,500,"Rain","light rain","10d",4,53,70,NA,1588266889,"Chignahuapan",-98.03,19.83,"MX",-18000,1588248199,1588294501,286.43,1020,784
"79",3515902,"Tepeapulco",19.783331,-98.550003,"MX","MXtepeapulco",18,"2020-04-30 12:14:43",293.4,1031,37,293.15,293.71,801,"Clouds","few clouds","02d",2.1,80,20,16093,1588266883,"Tepeapulco",-98.55,19.78,"MX",-18000,1588248327,1588294622,290.82,NA,NA
"80",3815363,"Xicohtzinco",19.173611,-98.23333,"MX","MXxicohtzinco",19,"2020-04-30 12:14:59",293.15,1030,37,293.15,293.15,800,"Clear","clear sky","01d",1.5,40,5,17702,1588266899,"Xicohtzinco",-98.23,19.17,"MX",-18000,1588248296,1588294500,290.95,NA,NA
"81",3815324,"Huamantla",19.315281,-97.925003,"MX","MXhuamantla",20,"2020-04-30 12:14:59",293.15,1030,37,293.15,293.15,800,"Clear","clear sky","01d",1.5,40,5,17702,1588266899,"Huamantla",-97.93,19.32,"MX",-18000,1588248212,1588294439,290.95,NA,NA
"82",3522164,"Palenque",17.51667,-91.966667,"MX","MXpalenque",1,"2020-04-30 12:14:43",307.66,1014,41,307.66,307.66,802,"Clouds","scattered clouds","03d",4.21,315,48,NA,1588266883,"Palenque",-91.97,17.52,"MX",-18000,1588246914,1588292876,308.09,1014,1007
"83",3527543,"Frontera Comalapa",15.65,-92.133331,"MX","MXfrontera comalapa",2,"2020-04-30 12:14:49",306.23,1014,29,306.23,306.23,800,"Clear","clear sky","01d",1.35,9,2,NA,1588266889,"Frontera Comalapa",-92.13,15.65,"MX",-18000,1588247086,1588292781,306.1,1014,939
"84",3530385,"Comalcalco",18.26667,-93.216667,"MX","MXcomalcalco",3,"2020-04-30 12:14:49",305.15,1017,59,305.15,305.15,721,"Haze","haze","50d",2.6,310,75,4828,1588266889,"Comalcalco",-93.22,18.27,"MX",-18000,1588247160,1588293231,308.55,NA,NA
"85",3522865,"Nacajuca",18.133329,-93.01667,"MX","MXnacajuca",4,"2020-04-30 12:14:43",305.15,1017,59,305.15,305.15,721,"Haze","haze","50d",2.6,310,75,4828,1588266883,"Nacajuca",-93.02,18.13,"MX",-18000,1588247122,1588293173,308.55,NA,NA
"86",3526908,"Huimanguillo",17.85,-93.383331,"MX","MXhuimanguillo",5,"2020-04-30 12:14:49",305.15,1017,59,305.15,305.15,721,"Haze","haze","50d",2.6,310,75,4828,1588266889,"Huimanguillo",-93.38,17.85,"MX",-18000,1588247229,1588293239,308.55,NA,NA
"87",3516499,"Suchiapa",16.616671,-93.083328,"MX","MXsuchiapa",6,"2020-04-30 12:14:43",305.15,1017,46,305.15,305.15,711,"Smoke","smoke","50d",6.2,300,40,4828,1588266883,"Suchiapa",-93.08,16.62,"MX",-18000,1588247245,1588293078,304,NA,NA
"89",3520020,"Salto de Agua",17.616671,-92.366669,"MX","MXsalto de agua",7,"2020-04-30 12:14:43",305.15,1017,59,305.15,305.15,721,"Haze","haze","50d",2.6,310,75,4828,1588266883,"Salto de Agua",-92.37,17.62,"MX",-18000,1588247003,1588292980,308.55,NA,NA
"90",3516439,"Tacotalpa",17.6,-92.816673,"MX","MXtacotalpa",8,"2020-04-30 12:14:43",305.15,1017,59,305.15,305.15,721,"Haze","haze","50d",2.6,310,75,4828,1588266883,"Tacotalpa",-92.82,17.6,"MX",-18000,1588247112,1588293086,308.55,NA,NA
"91",3516210,"Teapa",17.549999,-92.949997,"MX","MXteapa",9,"2020-04-30 12:14:43",305.15,1017,59,305.15,305.15,721,"Haze","haze","50d",2.6,310,75,4828,1588266883,"Teapa",-92.95,17.55,"MX",-18000,1588247147,1588293114,308.55,NA,NA
"92",3515767,"Tetecala",18.716669,-99.400002,"MX","MXtetecala",10,"2020-04-30 12:14:43",300.15,1023,32,300.15,300.15,803,"Clouds","broken clouds","04d",3.1,150,75,12874,1588266883,"Tetecala",-99.4,18.72,"MX",-18000,1588248609,1588294747,297.73,NA,NA
"93",3515384,"Tlapa de Comonfort",17.549999,-98.550003,"MX","MXtlapa de comonfort",11,"2020-04-30 12:14:42",303.87,1016,20,303.87,303.87,801,"Clouds","few clouds","02d",2.51,40,16,NA,1588266882,"Tlapa de Comonfort",-98.55,17.55,"MX",-18000,1588248491,1588294458,301.02,1016,896
"94",3532603,"Atlatlahucan",18.933331,-98.900002,"MX","MXatlatlahucan",12,"2020-04-30 12:14:49",296.04,1023,32,293.15,300.15,803,"Clouds","broken clouds","04d",3.1,150,75,12874,1588266889,"Atlatlahucan",-98.9,18.93,"MX",-18000,1588248474,1588294643,292.81,NA,NA
"95",3515679,"Tianguistenco",19.17972,-99.470558,"MX","MXtianguistenco",13,"2020-04-30 12:14:43",294.46,1032,51,289.15,300.15,801,"Clouds","few clouds","02d",2.1,280,20,11265,1588266883,"Tianguistenco",-99.47,19.18,"MX",-18000,1588248592,1588294798,293.24,NA,NA
"96",3532617,"Atlacomulco",19.798889,-99.874443,"MX","MXatlacomulco",14,"2020-04-30 12:14:49",289.15,1032,51,289.15,289.15,801,"Clouds","few clouds","02d",2.1,280,20,11265,1588266889,"Atlacomulco",-99.87,19.8,"MX",-18000,1588248642,1588294940,286.73,NA,NA
"97",3515751,"Tetepango",20.1,-99.166672,"MX","MXtetepango",15,"2020-04-30 12:14:43",293.95,1020,25,293.95,293.95,801,"Clouds","few clouds","02d",3.3,43,22,NA,1588266883,"Tetepango",-99.17,20.1,"MX",-18000,1588248452,1588294794,289.66,1020,800
"98",3515505,"Tizayuca",19.83333,-98.98333,"MX","MXtizayuca",16,"2020-04-30 12:14:43",293.44,1031,37,293.15,293.71,801,"Clouds","few clouds","02d",2.1,80,20,16093,1588266883,"Tizayuca",-98.98,19.83,"MX",-18000,1588248427,1588294729,290.87,NA,NA
"99",3533389,"Actopan",20.26667,-98.933327,"MX","MXactopan",17,"2020-04-30 12:14:49",293.82,1020,28,293.82,293.82,802,"Clouds","scattered clouds","03d",3.67,44,39,NA,1588266889,"Actopan",-98.93,20.27,"MX",-18000,1588248382,1588294750,289.5,1020,812
"100",3515044,"Tultepec",19.684719,-99.129173,"MX","MXtultepec",18,"2020-04-30 12:14:42",293.44,1031,37,293.15,293.71,801,"Clouds","few clouds","02d",2.1,80,20,16093,1588266882,"Tultepec",-99.13,19.68,"MX",-18000,1588248474,1588294754,290.87,NA,NA
"101",3518461,"San Marcos",16.799999,-99.349998,"MX","MXsan marcos",19,"2020-04-30 12:14:43",301.15,1014,61,301.15,301.15,721,"Haze","haze","50d",2.6,240,5,8047,1588266883,"San Marcos",-99.35,16.8,"MX",-18000,1588248737,1588294596,302.91,NA,NA
"102",3987500,"San Buenaventura",27.08333,-101.533333,"MX","MXsan buenaventura",20,"2020-04-30 12:15:13",300.02,1022,64,297.15,302.59,802,"Clouds","scattered clouds","03d",1.37,95,40,16093,1588266913,"San Buenaventura",-101.53,27.08,"MX",-18000,1588248466,1588295914,302.51,NA,NA
"103",4005867,"General Escobedo",25.816669,-100.333328,"MX","MXgeneral escobedo",1,"2020-04-30 12:15:13",296.28,1023,53,294.82,297.15,803,"Clouds","broken clouds","04d",3.1,140,75,19312,1588266913,"General Escobedo",-100.33,25.82,"MX",-18000,1588248282,1588295521,295.05,NA,NA
"104",4019869,"Abasolo",20.450001,-101.51667,"MX","MXabasolo",2,"2020-04-30 12:15:13",295.15,1029,40,295.15,295.15,800,"Clear","clear sky","01d",3.72,94,5,16093,1588266913,"Abasolo",-101.52,20.45,"MX",-18000,1588248989,1588295385,292.03,NA,NA
"105",4013579,"Cocula",20.36517,-103.822151,"MX","MXcocula",3,"2020-04-30 12:15:13",298.25,1024,29,297.04,300.37,800,"Clear","clear sky","01d",5.1,80,5,16093,1588266913,"Cocula",-103.82,20.37,"MX",-18000,1588249547,1588295931,293.72,NA,NA
"106",4009697,"El Grullo",19.799999,-104.216667,"MX","MXel grullo",4,"2020-04-30 12:15:13",308.93,1014,10,308.93,308.93,800,"Clear","clear sky","01d",0.84,73,0,NA,1588266913,"El Grullo",-104.22,19.8,"MX",-18000,1588249686,1588295984,306.27,1014,922
"107",4012721,"Cortazar",20.48333,-100.933327,"MX","MXcortazar",5,"2020-04-30 12:15:13",297.33,1028,38,296.48,298.15,800,"Clear","clear sky","01d",5.36,77,1,NA,1588266913,"Cortazar",-100.93,20.48,"MX",-18000,1588248846,1588295245,293.35,NA,NA
"108",3985344,"San Miguel de Allende",20.91667,-100.75,"MX","MXsan miguel de allende",6,"2020-04-30 12:15:13",297.33,1028,38,296.48,298.15,800,"Clear","clear sky","01d",3.78,82,0,NA,1588266913,"San Miguel de Allende",-100.75,20.92,"MX",-18000,1588248769,1588295235,294.46,NA,NA
"109",4001956,"La Huacana",18.966669,-101.816673,"MX","MXla huacana",7,"2020-04-30 12:15:13",297.01,1024,41,295.37,298.15,711,"Smoke","smoke","50d",1.89,221,75,12874,1588266913,"La Huacana",-101.82,18.97,"MX",-18000,1588249172,1588295347,295.68,NA,NA
"111",4004126,"Jamay",20.299999,-102.716667,"MX","MXjamay",9,"2020-04-30 12:15:13",297.15,1024,29,297.15,297.15,800,"Clear","clear sky","01d",5.1,80,5,16093,1588266913,"Jamay",-102.72,20.3,"MX",-18000,1588249289,1588295662,292.43,NA,NA
"112",4019807,"Acatic",20.783331,-102.883331,"MX","MXacatic",10,"2020-04-30 12:15:13",297.46,1024,29,297.04,298.15,800,"Clear","clear sky","01d",5.1,80,5,16093,1588266913,"Acatic",-102.88,20.78,"MX",-18000,1588249291,1588295736,292.79,NA,NA
"113",3985865,"San Juan de los Lagos",21.25,-102.300003,"MX","MXsan juan de los lagos",11,"2020-04-30 12:15:13",294.15,1028,28,294.15,294.15,800,"Clear","clear sky","01d",1,270,5,14484,1588266913,"San Juan de los Lagos",-102.3,21.25,"MX",-18000,1588249116,1588295633,291.74,NA,NA
"114",3982887,"Sombrerete",23.633329,-103.650002,"MX","MXsombrerete",12,"2020-04-30 12:15:13",295.07,1018,18,295.07,295.07,802,"Clouds","scattered clouds","03d",4.01,132,30,NA,1588266913,"Sombrerete",-103.65,23.63,"MX",-18000,1588249255,1588296141,289.82,1018,782
"115",3996387,"Matehuala",23.65,-100.650002,"MX","MXmatehuala",13,"2020-04-30 12:15:13",295.17,1021,29,295.17,295.17,803,"Clouds","broken clouds","04d",4.93,162,76,NA,1588266913,"Matehuala",-100.65,23.65,"MX",-18000,1588248534,1588295423,290.25,1021,852
"116",4014420,"Chavinda",20.01667,-102.449997,"MX","MXchavinda",14,"2020-04-30 12:15:13",307.39,1016,13,307.39,307.39,800,"Clear","clear sky","01d",0.85,359,0,NA,1588266913,"Chavinda",-102.45,20.02,"MX",-18000,1588249245,1588295576,305.1,1016,856
"117",4005143,"Guaymas",27.933331,-110.900002,"MX","MXguaymas",15,"2020-04-30 12:15:13",303.17,1010,58,301.15,305.37,800,"Clear","clear sky","01d",1.96,198,5,16093,1588266913,"Guaymas",-110.9,27.93,"MX",-25200,1588250641,1588298235,305.9,NA,NA
"118",4004647,"Huatabampo",26.83333,-109.633331,"MX","MXhuatabampo",16,"2020-04-30 12:15:13",303.14,1011,54,302.59,303.71,802,"Clouds","scattered clouds","03d",1.79,112,37,NA,1588266913,"Huatabampo",-109.63,26.83,"MX",-25200,1588250429,1588297837,305.42,NA,NA
"119",3995017,"Navolato",24.76722,-107.694443,"MX","MXnavolato",17,"2020-04-30 12:15:13",303.14,1011,65,302.59,303.71,800,"Clear","clear sky","01d",0.89,112,0,NA,1588266913,"Navolato",-107.69,24.77,"MX",-21600,1588250133,1588297202,307.58,NA,NA
"120",3995652,"Mocorito",25.48333,-107.916672,"MX","MXmocorito",18,"2020-04-30 12:15:13",303.7,1010,66,303.15,304.26,800,"Clear","clear sky","01d",0.89,157,0,NA,1588266913,"Mocorito",-107.92,25.48,"MX",-21600,1588250131,1588297315,308.58,NA,NA
"121",3979855,"Yuriria",20.200001,-101.150002,"MX","MXyuriria",19,"2020-04-30 12:15:13",297.15,1027,36,297.15,297.15,800,"Clear","clear sky","01d",3.6,20,5,12874,1588266913,"Yuriria",-101.15,20.2,"MX",-18000,1588248919,1588295277,294.16,NA,NA
"122",3980777,"Uriangato",20.15,-101.183327,"MX","MXuriangato",20,"2020-04-30 12:15:13",297.15,1027,36,297.15,297.15,800,"Clear","clear sky","01d",3.6,20,5,12874,1588266913,"Uriangato",-101.18,20.15,"MX",-18000,1588248930,1588295281,294.16,NA,NA
"123",3762770,"San Antonio de la Cal",17.03083,-96.697502,"MX","MXsan antonio de la cal",1,"2020-04-30 12:14:59",297.15,1026,31,297.15,297.15,801,"Clouds","few clouds","02d",2.1,360,20,19312,1588266899,"San Antonio de la Cal",-96.7,17.03,"MX",-18000,1588248084,1588293977,294.72,NA,NA
"124",3516912,"Santiago Tuxtla",18.466669,-95.300003,"MX","MXsantiago tuxtla",2,"2020-04-30 12:14:43",304.93,1018,41,304.93,304.93,803,"Clouds","broken clouds","04d",4.3,8,60,NA,1588266883,"Santiago Tuxtla",-95.3,18.47,"MX",-18000,1588247644,1588293745,304.25,1018,993
"125",3815451,"Tenancingo",19.147221,-98.180557,"MX","MXtenancingo",3,"2020-04-30 12:14:59",293.15,1030,37,293.15,293.15,800,"Clear","clear sky","01d",1.5,40,5,17702,1588266899,"Tenancingo",-98.18,19.15,"MX",-18000,1588248285,1588294486,290.95,NA,NA
"126",3531042,"Chemax",20.65,-87.933327,"MX","MXchemax",4,"2020-04-30 12:14:49",312.71,1015,29,312.71,312.71,802,"Clouds","scattered clouds","03d",0.52,305,30,NA,1588266889,"Chemax",-87.93,20.65,"MX",-18000,1588245714,1588292137,315.21,1015,1012
"127",3526662,"Izamal",20.933331,-89.01667,"MX","MXizamal",5,"2020-04-30 12:14:49",305.3,1016,52,305.15,305.37,803,"Clouds","broken clouds","04d",3.1,300,75,11265,1588266889,"Izamal",-89.02,20.93,"MX",-18000,1588245955,1588292420,307.33,NA,NA
"128",3980828,"Tzintzuntzan",19.616671,-101.583328,"MX","MXtzintzuntzan",6,"2020-04-30 12:15:13",295.37,1019,45,295.37,295.37,802,"Clouds","scattered clouds","03d",1.79,348,25,NA,1588266913,"Tzintzuntzan",-101.58,19.62,"MX",-18000,1588249066,1588295337,294.09,NA,NA
"129",3523180,"Mineral del Monte",20.133329,-98.666672,"MX","MXmineral del monte",7,"2020-04-30 12:14:49",289.04,1020,25,289.04,289.04,803,"Clouds","broken clouds","04d",3.73,53,51,NA,1588266889,"Mineral del Monte",-98.67,20.13,"MX",-18000,1588248330,1588294677,283.92,1020,740
"130",4018100,"Asientos",22.23333,-102.099998,"MX","MXasientos",8,"2020-04-30 12:15:13",294.15,1028,28,294.15,294.15,800,"Clear","clear sky","01d",1,270,5,14484,1588266913,"Asientos",-102.1,22.23,"MX",-18000,1588248993,1588295660,291.74,NA,NA
"131",4017743,"Badiraguato",25.366671,-107.51667,"MX","MXbadiraguato",9,"2020-04-30 12:15:13",303.28,1008,49,302.59,303.71,800,"Clear","clear sky","01d",1.92,212,0,NA,1588266913,"Badiraguato",-107.52,25.37,"MX",-21600,1588250044,1588297210,304.82,NA,NA
"132",3980621,"Valle de Bravo",19.183331,-100.133331,"MX","MXvalle de bravo",10,"2020-04-30 12:15:13",295.32,1032,51,289.15,299.26,801,"Clouds","few clouds","02d",2.1,280,20,11265,1588266913,"Valle de Bravo",-100.13,19.18,"MX",-18000,1588248751,1588294957,294.33,NA,NA
"133",3816739,"Arriaga",16.23333,-93.900002,"MX","MXarriaga",11,"2020-04-30 12:14:59",309.64,1014,31,309.64,309.64,800,"Clear","clear sky","01d",6.01,15,1,NA,1588266899,"Arriaga",-93.9,16.23,"MX",-18000,1588247470,1588293247,307.65,1014,1008
"134",3526953,"Huejotzingo",19.15,-98.400002,"MX","MXhuejotzingo",12,"2020-04-30 12:14:49",293.15,1030,37,293.15,293.15,800,"Clear","clear sky","01d",1.5,40,5,17702,1588266889,"Huejotzingo",-98.4,19.15,"MX",-18000,1588248338,1588294539,290.95,NA,NA
"135",3515479,"Tlacotalpan",18.616671,-95.666672,"MX","MXtlacotalpan",13,"2020-04-30 12:14:43",303.95,1018,56,303.95,303.95,802,"Clouds","scattered clouds","03d",5.74,1,34,NA,1588266883,"Tlacotalpan",-95.67,18.62,"MX",-18000,1588247722,1588293845,304.11,1018,1018
"136",3514278,"Yecapixtla",18.883329,-98.866669,"MX","MXyecapixtla",14,"2020-04-30 12:14:42",297.5,1023,32,293.15,300.15,803,"Clouds","broken clouds","04d",3.1,150,75,12874,1588266882,"Yecapixtla",-98.87,18.88,"MX",-18000,1588248470,1588294632,294.54,NA,NA
"137",3531598,"Capulhuac",19.191389,-99.466942,"MX","MXcapulhuac",15,"2020-04-30 12:14:49",289.15,1032,51,289.15,289.15,801,"Clouds","few clouds","02d",2.1,280,20,11265,1588266889,"Capulhuac",-99.47,19.19,"MX",-18000,1588248592,1588294799,286.73,NA,NA
"138",3515690,"Tezontepec de Aldama",20.200001,-99.26667,"MX","MXtezontepec de aldama",16,"2020-04-30 12:14:43",294.78,1020,26,294.78,294.78,801,"Clouds","few clouds","02d",3.54,45,12,NA,1588266883,"Tezontepec de Aldama",-99.27,20.2,"MX",-18000,1588248468,1588294826,290.51,1020,816
"139",3515665,"Ticul",20.4,-89.533333,"MX","MXticul",17,"2020-04-30 12:14:43",305.27,1016,52,305.15,305.37,803,"Clouds","broken clouds","04d",3.1,300,75,11265,1588266883,"Ticul",-89.53,20.4,"MX",-18000,1588246117,1588292503,307.29,NA,NA
"140",3532465,"Bacalar",18.66667,-88.383331,"MX","MXbacalar",18,"2020-04-30 12:14:49",303.15,1015,70,303.15,303.15,802,"Clouds","scattered clouds","03d",4.6,120,40,9656,1588266889,"Bacalar",-88.38,18.67,"MX",-18000,1588245969,1588292098,305.7,NA,NA
"142",3530177,"Cosamaloapan de Carpio",18.366671,-95.800003,"MX","MXcosamaloapan de carpio",20,"2020-04-30 12:14:49",306.67,1018,43,306.67,306.67,802,"Clouds","scattered clouds","03d",4.92,1,29,NA,1588266889,"Cosamaloapan de Carpio",-95.8,18.37,"MX",-18000,1588247771,1588293858,306.55,1018,1017
"144",3515796,"Tequisquiapan",20.51667,-99.866669,"MX","MXtequisquiapan",2,"2020-04-30 12:14:43",293.15,1030,42,293.15,293.15,800,"Clear","clear sky","01d",4.6,80,5,12874,1588266883,"Tequisquiapan",-99.87,20.52,"MX",-18000,1588248588,1588294994,289.16,NA,NA
"145",3521951,"Panotla",19.316669,-98.26667,"MX","MXpanotla",3,"2020-04-30 12:14:43",293.15,1030,37,293.15,293.15,800,"Clear","clear sky","01d",1.5,40,5,17702,1588266883,"Panotla",-98.27,19.32,"MX",-18000,1588248294,1588294520,290.95,NA,NA
"146",3515510,"Tixtla de Guerrero",17.56732,-99.397987,"MX","MXtixtla de guerrero",4,"2020-04-30 12:14:43",302.64,1015,20,302.64,302.64,803,"Clouds","broken clouds","04d",2.86,45,57,NA,1588266883,"Tixtla de Guerrero",-99.4,17.57,"MX",-18000,1588248693,1588294664,299.35,1015,872
"147",3817731,"Tezoyuca",19.591669,-98.916672,"MX","MXtezoyuca",5,"2020-04-30 12:14:59",293.44,1031,37,293.15,293.71,801,"Clouds","few clouds","02d",2.1,80,20,16093,1588266899,"Tezoyuca",-98.92,19.59,"MX",-18000,1588248430,1588294696,290.87,NA,NA
"148",3982168,"Tecuala",22.398609,-105.45694,"MX","MXtecuala",6,"2020-04-30 12:15:13",307.23,1014,25,307.23,307.23,802,"Clouds","scattered clouds","03d",1.84,232,33,NA,1588266913,"Tecuala",-105.46,22.4,"MX",-21600,1588249786,1588296480,306.33,1014,1012
"149",3529981,"Cuautlancingo",19.08333,-98.26667,"MX","MXcuautlancingo",7,"2020-04-30 12:14:49",293.15,1030,37,293.15,293.15,800,"Clear","clear sky","01d",1.5,40,5,17702,1588266889,"Cuautlancingo",-98.27,19.08,"MX",-18000,1588248312,1588294503,290.95,NA,NA
"150",3530935,"Chicomuselo",15.76667,-92.26667,"MX","MXchicomuselo",8,"2020-04-30 12:14:49",308.83,1014,26,308.83,308.83,800,"Clear","clear sky","01d",1.01,54,0,NA,1588266889,"Chicomuselo",-92.27,15.77,"MX",-18000,1588247111,1588292823,309.11,1014,952
"151",3514450,"Xochimilco",19.26222,-99.107498,"MX","MXxochimilco",9,"2020-04-30 12:14:42",293.45,1031,37,293.15,293.71,801,"Clouds","few clouds","02d",2.1,80,20,16093,1588266882,"Xochimilco",-99.11,19.26,"MX",-18000,1588248500,1588294718,290.88,NA,NA
"152",3515373,"Tlaquiltenango",18.633329,-99.166672,"MX","MXtlaquiltenango",10,"2020-04-30 12:14:43",302.61,1023,32,300.15,304.82,803,"Clouds","broken clouds","04d",3.1,150,75,12874,1588266883,"Tlaquiltenango",-99.17,18.63,"MX",-18000,1588248561,1588294686,300.77,NA,NA
"153",3526600,"Jaltenco",19.750561,-99.095558,"MX","MXjaltenco",11,"2020-04-30 12:14:49",293.44,1031,37,293.15,293.71,801,"Clouds","few clouds","02d",2.1,80,20,16093,1588266889,"Jaltenco",-99.1,19.75,"MX",-18000,1588248461,1588294752,290.87,NA,NA
"154",4019819,"Acaponeta",22.496389,-105.359444,"MX","MXacaponeta",12,"2020-04-30 12:15:13",309.19,1014,20,309.19,309.19,802,"Clouds","scattered clouds","03d",1.78,233,31,NA,1588266913,"Acaponeta",-105.36,22.5,"MX",-21600,1588249754,1588296463,307.86,1014,1010
"155",3515762,"Tetela de Ocampo",19.816669,-97.800003,"MX","MXtetela de ocampo",13,"2020-04-30 12:14:43",292.78,1020,39,292.78,292.78,500,"Rain","light rain","10d",3.17,28,86,NA,1588266883,"Tetela de Ocampo",-97.8,19.82,"MX",-18000,1588248144,1588294445,289.49,1020,832
"156",3815419,"Totolac",19.325001,-98.258331,"MX","MXtotolac",14,"2020-04-30 12:14:59",293.15,1030,37,293.15,293.15,800,"Clear","clear sky","01d",1.5,40,5,17702,1588266899,"Totolac",-98.26,19.32,"MX",-18000,1588248292,1588294518,290.95,NA,NA
"157",3526883,"Huitzilac",19.029169,-99.268333,"MX","MXhuitzilac",15,"2020-04-30 12:14:49",300.15,1023,32,300.15,300.15,803,"Clouds","broken clouds","04d",3.1,150,75,12874,1588266889,"Huitzilac",-99.27,19.03,"MX",-18000,1588248555,1588294739,297.73,NA,NA
"159",3983636,"Santiago Ixcuintla",21.816669,-105.216667,"MX","MXsantiago ixcuintla",17,"2020-04-30 12:15:13",301.15,1018,45,301.15,301.15,800,"Clear","clear sky","01d",2.2,267,5,19312,1588266913,"Santiago Ixcuintla",-105.22,21.82,"MX",-21600,1588249773,1588296377,301.21,NA,NA
"160",3527006,"Huaquechula",18.76667,-98.550003,"MX","MXhuaquechula",18,"2020-04-30 12:14:49",293.15,1030,37,293.15,293.15,800,"Clear","clear sky","01d",1.5,40,5,17702,1588266889,"Huaquechula",-98.55,18.77,"MX",-18000,1588248402,1588294547,290.95,NA,NA
"161",4019098,"Ahome",25.91667,-109.183327,"MX","MXahome",19,"2020-04-30 12:15:13",301.28,1012,65,299.15,302.59,801,"Clouds","few clouds","02d",3.1,90,20,16093,1588266913,"Ahome",-109.18,25.92,"MX",-21600,1588250397,1588297654,303.25,NA,NA
"162",3530295,"Conkal",21.066669,-89.533333,"MX","MXconkal",20,"2020-04-30 12:14:49",305.3,1016,52,305.15,305.37,803,"Clouds","broken clouds","04d",3.1,300,75,11265,1588266889,"Conkal",-89.53,21.07,"MX",-18000,1588246066,1588292553,307.33,NA,NA
"163",3522439,"Ocuituco",18.866671,-98.76667,"MX","MXocuituco",1,"2020-04-30 12:14:43",296.74,1023,32,293.15,300.15,803,"Clouds","broken clouds","04d",3.1,150,75,12874,1588266883,"Ocuituco",-98.77,18.87,"MX",-18000,1588248447,1588294607,293.64,NA,NA
"164",3520922,"Quechultenango",17.41667,-99.216667,"MX","MXquechultenango",2,"2020-04-30 12:14:43",307.09,1015,19,307.09,307.09,803,"Clouds","broken clouds","04d",1.69,44,53,NA,1588266883,"Quechultenango",-99.22,17.42,"MX",-18000,1588248661,1588294610,305.22,1015,923
"165",3530913,"Chietla",18.51667,-98.583328,"MX","MXchietla",3,"2020-04-30 12:14:49",304.74,1018,17,304.74,304.74,803,"Clouds","broken clouds","04d",3.28,95,56,NA,1588266889,"Chietla",-98.58,18.52,"MX",-18000,1588248427,1588294536,301.04,1018,898
"166",3518387,"San Mateo Atenco",19.261669,-99.535278,"MX","MXsan mateo atenco",4,"2020-04-30 12:14:43",289.15,1032,51,289.15,289.15,801,"Clouds","few clouds","02d",2.1,280,20,11265,1588266883,"San Mateo Atenco",-99.54,19.26,"MX",-18000,1588248603,1588294821,286.73,NA,NA
"167",3827408,"Miguel Hidalgo",19.422501,-99.202782,"MX","MXmiguel hidalgo",5,"2020-04-30 12:14:43",292.31,1031,37,289.15,293.71,801,"Clouds","few clouds","02d",2.1,80,20,16093,1588266883,"Miguel Hidalgo",-99.2,19.42,"MX",-18000,1588248510,1588294751,289.54,NA,NA
"168",3522696,"Nogales",18.816669,-97.166672,"MX","MXnogales",6,"2020-04-30 12:14:43",296.8,1020,33,296.8,296.8,802,"Clouds","scattered clouds","03d",3.59,77,26,NA,1588266883,"Nogales",-97.17,18.82,"MX",-18000,1588248067,1588294219,293.46,1020,870
"170",4018761,"Allende",28.33333,-100.849998,"MX","MXallende",8,"2020-04-30 12:15:13",301.15,1022,37,301.15,301.15,800,"Clear","clear sky","01d",5.1,180,5,16093,1588266913,"Allende",-100.85,28.33,"MX",-18000,1588248196,1588295857,298.18,NA,NA
"171",3517831,"San Salvador el Seco",19.133329,-97.650002,"MX","MXsan salvador el seco",9,"2020-04-30 12:14:43",293.05,1020,21,293.05,293.05,803,"Clouds","broken clouds","04d",3.27,41,74,NA,1588266883,"San Salvador el Seco",-97.65,19.13,"MX",-18000,1588248159,1588294358,288.37,1020,778
"172",3827306,"San Antonio La Isla",19.16111,-99.570831,"MX","MXsan antonio la isla",10,"2020-04-30 12:14:59",289.15,1032,51,289.15,289.15,801,"Clouds","few clouds","02d",2.1,280,20,11265,1588266899,"San Antonio La Isla",-99.57,19.16,"MX",-18000,1588248618,1588294821,286.73,NA,NA
"173",3672486,"Pereira",4.81333,-75.696114,"CO","COpereira",11,"2020-04-30 12:14:58",298.15,1020,78,298.15,298.15,802,"Clouds","scattered clouds","03d",2.6,330,40,10000,1588266898,"Pereira",-75.7,4.81,"CO",-18000,1588243874,1588288108,300.46,NA,NA
"174",3666997,"Tocancipa",4.96531,-73.91301,"CO","COtocancipa",12,"2020-04-30 12:14:53",294.15,1029,46,294.15,294.15,803,"Clouds","broken clouds","04d",3.6,110,75,10000,1588266893,"Tocancipa",-73.91,4.97,"CO",-18000,1588243434,1588287688,291.4,NA,NA
"175",3689147,"Barranquilla",10.96389,-74.796387,"CO","CObarranquilla",13,"2020-04-30 12:14:58",307.15,1011,56,307.15,307.15,802,"Clouds","scattered clouds","03d",3.6,90,40,10000,1588266898,"Barranquilla",-74.8,10.96,"CO",-18000,1588243252,1588288298,310.42,NA,NA
"176",3688465,"Bucaramanga",7.12539,-73.119797,"CO","CObucaramanga",14,"2020-04-30 12:14:53",300.15,1018,69,300.15,300.15,803,"Clouds","broken clouds","04d",3.1,320,75,10000,1588266893,"Bucaramanga",-73.12,7.13,"CO",-18000,1588243103,1588287640,302.07,NA,NA
"177",3687925,"Cali",3.43722,-76.522499,"CO","COcali",15,"2020-04-30 12:14:58",301.15,1018,65,301.15,301.15,802,"Clouds","scattered clouds","03d",1,NA,40,10000,1588266898,"Cali",-76.52,3.44,"CO",-18000,1588244160,1588288215,304.53,NA,NA
"178",3665657,"Yumbo",3.58234,-76.491463,"CO","COyumbo",16,"2020-04-30 12:14:53",301.15,1018,65,301.15,301.15,802,"Clouds","scattered clouds","03d",1,NA,40,10000,1588266893,"Yumbo",-76.49,3.58,"CO",-18000,1588244143,1588288217,304.53,NA,NA
"179",3680450,"Itagui",6.17194,-75.611389,"CO","COitagui",17,"2020-04-30 12:14:58",294.5,1022,61,292.04,298.15,802,"Clouds","scattered clouds","03d",0.14,45,40,10000,1588266898,"Itagui",-75.61,6.17,"CO",-18000,1588243764,1588288175,295.5,NA,NA
"180",3688256,"Buga",3.90089,-76.297829,"CO","CObuga",18,"2020-04-30 12:14:58",301.15,1018,65,301.15,301.15,802,"Clouds","scattered clouds","03d",1,NA,40,10000,1588266898,"Buga",-76.3,3.9,"CO",-18000,1588244077,1588288192,304.53,NA,NA
"181",3675443,"Manizales",5.06889,-75.51738,"CO","COmanizales",19,"2020-04-30 12:14:58",298.15,1020,78,298.15,298.15,802,"Clouds","scattered clouds","03d",2.6,330,40,10000,1588266898,"Manizales",-75.52,5.07,"CO",-18000,1588243814,1588288081,300.46,NA,NA
"182",3682631,"Envigado",6.17064,-75.585312,"CO","COenvigado",20,"2020-04-30 12:14:58",294,1022,61,292.04,298.15,802,"Clouds","scattered clouds","03d",0.19,65,40,10000,1588266898,"Envigado",-75.59,6.17,"CO",-18000,1588243759,1588288170,294.81,NA,NA
"183",3672778,"Pasto",1.21361,-77.281113,"CO","COpasto",1,"2020-04-30 12:14:58",295.15,1023,68,295.15,295.15,802,"Clouds","scattered clouds","03d",3.1,330,40,10000,1588266898,"Pasto",-77.28,1.21,"CO",-18000,1588244486,1588288254,294.9,NA,NA
"184",3680656,"Ibague",4.43889,-75.232224,"CO","COibague",2,"2020-04-30 12:14:58",298.15,1020,73,298.15,298.15,803,"Clouds","broken clouds","04d",2.5,135,75,10000,1588266898,"Ibague",-75.23,4.44,"CO",-18000,1588243785,1588287971,300.01,NA,NA
"185",3689169,"Barrancabermeja",7.06528,-73.854721,"CO","CObarrancabermeja",3,"2020-04-30 12:14:58",303.15,1012,74,303.15,303.15,802,"Clouds","scattered clouds","03d",1,NA,40,10000,1588266898,"Barrancabermeja",-73.85,7.07,"CO",-18000,1588243283,1588287811,308.78,NA,NA
"186",3685533,"Cucuta",7.88333,-72.50528,"CO","COcucuta",4,"2020-04-30 12:14:58",305.15,1015,55,305.15,305.15,802,"Clouds","scattered clouds","03d",1.5,NA,40,10000,1588266898,"Cucuta",-72.51,7.88,"CO",-18000,1588242908,1588287543,308.7,NA,NA
"187",3666645,"Tulua",4.08466,-76.195358,"CO","COtulua",5,"2020-04-30 12:14:53",299.68,1018,65,298.15,301.15,802,"Clouds","scattered clouds","03d",1,NA,40,10000,1588266893,"Tulua",-76.2,4.08,"CO",-18000,1588244042,1588288180,302.4,NA,NA
"188",3689560,"Armenia",4.53389,-75.681107,"CO","COarmenia",6,"2020-04-30 12:14:59",298.15,1020,73,298.15,298.15,803,"Clouds","broken clouds","04d",0.94,262,75,10000,1588266899,"Armenia",-75.68,4.53,"CO",-18000,1588243888,1588288085,301.1,NA,NA
"189",3686675,"Chia",4.85876,-74.058662,"CO","COchia",7,"2020-04-30 12:14:58",294.15,1029,46,294.15,294.15,803,"Clouds","broken clouds","04d",3.6,110,75,10000,1588266898,"Chia",-74.06,4.86,"CO",-18000,1588243477,1588287717,291.4,NA,NA
"190",3674292,"Mosquera",4.70592,-74.230209,"CO","COmosquera",8,"2020-04-30 12:14:58",294.15,1029,46,294.15,294.15,803,"Clouds","broken clouds","04d",3.6,110,75,10000,1588266898,"Mosquera",-74.23,4.71,"CO",-18000,1588243528,1588287748,291.4,NA,NA
"191",3667983,"Sincelejo",9.30472,-75.397781,"CO","COsincelejo",9,"2020-04-30 12:14:53",303.69,1010,61,303.69,303.69,500,"Rain","light rain","10d",2.37,217,78,NA,1588266893,"Sincelejo",-75.4,9.3,"CO",-18000,1588243507,1588288331,306.81,1010,987
"192",3667849,"Soledad",10.91843,-74.764587,"CO","COsoledad",10,"2020-04-30 12:14:53",307.15,1011,56,307.15,307.15,802,"Clouds","scattered clouds","03d",3.6,90,40,10000,1588266893,"Soledad",-74.76,10.92,"CO",-18000,1588243245,1588288286,310.42,NA,NA
"193",3682516,"Facatativa",4.81367,-74.35453,"CO","COfacatativa",11,"2020-04-30 12:14:58",294.15,1029,46,294.15,294.15,803,"Clouds","broken clouds","04d",3.6,110,75,10000,1588266898,"Facatativa",-74.35,4.81,"CO",-18000,1588243550,1588287784,291.4,NA,NA
"194",3665688,"Yopal",5.33775,-72.395859,"CO","COyopal",12,"2020-04-30 12:14:53",305.26,1013,53,305.26,305.26,500,"Rain","light rain","10d",0.54,100,73,NA,1588266893,"Yopal",-72.4,5.34,"CO",-18000,1588243048,1588287350,309.22,1013,975
"195",3667905,"Soacha",4.57937,-74.21682,"CO","COsoacha",13,"2020-04-30 12:14:53",294.15,1029,46,294.15,294.15,803,"Clouds","broken clouds","04d",3.6,110,75,10000,1588266893,"Soacha",-74.22,4.58,"CO",-18000,1588243534,1588287737,291.4,NA,NA
"196",3688928,"Bello",6.33732,-75.557953,"CO","CObello",14,"2020-04-30 12:14:58",294.23,1022,61,292.04,298.15,802,"Clouds","scattered clouds","03d",0.47,90,40,10000,1588266898,"Bello",-75.56,6.34,"CO",-18000,1588243741,1588288174,294.92,NA,NA
"197",3687230,"Cartago",4.74639,-75.911667,"CO","COcartago",15,"2020-04-30 12:14:58",298.15,1020,78,298.15,298.15,802,"Clouds","scattered clouds","03d",2.6,330,40,10000,1588266898,"Cartago",-75.91,4.75,"CO",-18000,1588243928,1588288154,300.46,NA,NA
"198",3685095,"Dos Quebradas",4.83916,-75.667259,"CO","COdos quebradas",16,"2020-04-30 12:14:58",298.15,1020,78,298.15,298.15,802,"Clouds","scattered clouds","03d",2.6,330,40,10000,1588266898,"Dos Quebradas",-75.67,4.84,"CO",-18000,1588243865,1588288102,300.46,NA,NA
"199",3668454,"Santa Rosa de Cabal",4.86806,-75.621391,"CO","COsanta rosa de cabal",17,"2020-04-30 12:14:53",298.15,1020,78,298.15,298.15,802,"Clouds","scattered clouds","03d",2.6,330,40,10000,1588266893,"Santa Rosa de Cabal",-75.62,4.87,"CO",-18000,1588243851,1588288092,300.46,NA,NA
"200",3686561,"Chinchina",4.9825,-75.603607,"CO","COchinchina",18,"2020-04-30 12:14:58",298.15,1020,78,298.15,298.15,802,"Clouds","scattered clouds","03d",2.6,330,40,10000,1588266898,"Chinchina",-75.6,4.98,"CO",-18000,1588243839,1588288095,300.46,NA,NA
"201",3682385,"Floridablanca",7.06222,-73.086441,"CO","COfloridablanca",19,"2020-04-30 12:14:58",300.15,1018,69,300.15,300.15,803,"Clouds","broken clouds","04d",3.1,320,75,10000,1588266898,"Floridablanca",-73.09,7.06,"CO",-18000,1588243101,1588287628,302.07,NA,NA
"202",3686422,"Choconta",5.14468,-73.685783,"CO","COchoconta",20,"2020-04-30 12:14:58",292.02,1014,30,292.02,292.02,500,"Rain","light rain","10d",2.97,118,82,NA,1588266898,"Choconta",-73.69,5.14,"CO",-18000,1588243370,1588287647,288.09,1014,748
"203",3689941,"Anapoima",4.52028,-74.539436,"CO","COanapoima",1,"2020-04-30 12:14:59",294.15,1029,46,294.15,294.15,803,"Clouds","broken clouds","04d",3.6,110,75,10000,1588266899,"Anapoima",-74.54,4.52,"CO",-18000,1588243615,1588287810,291.4,NA,NA
"204",3680539,"Ipiales",0.83018,-77.64959,"CO","COipiales",2,"2020-04-30 12:14:58",290.15,1033,63,290.15,290.15,803,"Clouds","broken clouds","04d",4.1,100,75,10000,1588266898,"Ipiales",-77.65,0.83,"CO",-18000,1588244599,1588288318,287.3,NA,NA
"205",3670730,"Rionegro",6.15515,-75.373711,"CO","COrionegro",3,"2020-04-30 12:14:53",292.43,1028,77,292.04,293.15,802,"Clouds","scattered clouds","03d",3.1,200,40,10000,1588266893,"Rionegro",-75.37,6.16,"CO",-18000,1588243707,1588288116,291.93,NA,NA
"206",3681429,"Guarne",6.28046,-75.443542,"CO","COguarne",4,"2020-04-30 12:14:58",293.77,1028,77,292.04,298.15,802,"Clouds","scattered clouds","03d",3.1,200,40,10000,1588266898,"Guarne",-75.44,6.28,"CO",-18000,1588243716,1588288141,293.76,NA,NA
"207",3689870,"Angostura",6.88508,-75.334671,"CO","COangostura",5,"2020-04-30 12:14:59",294.5,1012,51,294.5,294.5,500,"Rain","light rain","10d",0.58,57,94,NA,1588266899,"Angostura",-75.33,6.89,"CO",-18000,1588243649,1588288155,294.36,1012,839
"208",3681797,"Guacari",3.76383,-76.332916,"CO","COguacari",6,"2020-04-30 12:14:58",301.15,1018,65,301.15,301.15,802,"Clouds","scattered clouds","03d",1,NA,40,10000,1588266898,"Guacari",-76.33,3.76,"CO",-18000,1588244093,1588288191,304.53,NA,NA
"209",3682281,"Funza",4.71638,-74.211952,"CO","COfunza",7,"2020-04-30 12:14:58",294.15,1029,46,294.15,294.15,803,"Clouds","broken clouds","04d",3.6,110,75,10000,1588266898,"Funza",-74.21,4.72,"CO",-18000,1588243522,1588287744,291.4,NA,NA
"210",3686441,"Choachi",4.52897,-73.922729,"CO","COchoachi",8,"2020-04-30 12:14:58",297.91,1029,46,294.15,302.15,803,"Clouds","broken clouds","04d",3.6,110,75,10000,1588266898,"Choachi",-73.92,4.53,"CO",-18000,1588243465,1588287662,296.12,NA,NA
"211",3671116,"Quibdo",5.69472,-76.66111,"CO","COquibdo",9,"2020-04-30 12:14:58",303.98,1012,68,303.98,303.98,501,"Rain","moderate rain","10d",1.41,214,87,NA,1588266898,"Quibdo",-76.66,5.69,"CO",-18000,1588244047,1588288395,308.94,1012,1007
"212",3665542,"Zipaquira",5.02208,-74.004807,"CO","COzipaquira",10,"2020-04-30 12:14:53",294.15,1029,46,294.15,294.15,803,"Clouds","broken clouds","04d",3.6,110,75,10000,1588266893,"Zipaquira",-74,5.02,"CO",-18000,1588243453,1588287713,291.4,NA,NA
"213",3666608,"Tunja",5.53528,-73.367783,"CO","COtunja",11,"2020-04-30 12:14:53",289.48,1013,36,289.48,289.48,500,"Rain","light rain","10d",1.92,144,69,NA,1588266893,"Tunja",-73.37,5.54,"CO",-18000,1588243267,1588287596,286.34,1013,737
"214",3667807,"Sopo",4.9075,-73.9384,"CO","COsopo",12,"2020-04-30 12:14:53",294.15,1029,46,294.15,294.15,803,"Clouds","broken clouds","04d",3.6,110,75,10000,1588266893,"Sopo",-73.94,4.91,"CO",-18000,1588243445,1588287692,291.4,NA,NA
"215",3687964,"Calarca",4.52949,-75.640907,"CO","COcalarca",13,"2020-04-30 12:14:58",298.15,1020,73,298.15,298.15,803,"Clouds","broken clouds","04d",0.7,251,75,10000,1588266898,"Calarca",-75.64,4.53,"CO",-18000,1588243878,1588288075,301.27,NA,NA
"216",3666304,"Valledupar",10.46314,-73.25322,"CO","COvalledupar",14,"2020-04-30 12:14:53",306.15,1014,49,306.15,306.15,803,"Clouds","broken clouds","04d",2.6,40,75,10000,1588266893,"Valledupar",-73.25,10.46,"CO",-18000,1588242913,1588287892,308.43,NA,NA
"217",3674885,"Melgar",4.20475,-74.640747,"CO","COmelgar",15,"2020-04-30 12:14:58",303.9,1014,54,303.9,303.9,500,"Rain","light rain","10d",1.1,286,37,NA,1588266898,"Melgar",-74.64,4.2,"CO",-18000,1588243659,1588287814,307,1014,975
"218",3682573,"Espinal",4.14924,-74.884293,"CO","COespinal",16,"2020-04-30 12:14:58",304.2,1014,55,304.2,304.2,802,"Clouds","scattered clouds","03d",0.77,182,44,NA,1588266898,"Espinal",-74.88,4.15,"CO",-18000,1588243720,1588287868,307.81,1014,978
"219",3679277,"La Dorada",5.44783,-74.663109,"CO","COla dorada",17,"2020-04-30 12:14:58",304.74,1013,62,304.74,304.74,500,"Rain","light rain","10d",0.27,280,60,NA,1588266898,"La Dorada",-74.66,5.45,"CO",-18000,1588243583,1588287900,310.02,1013,993
"220",3687644,"Candelaria",3.40671,-76.34819,"CO","COcandelaria",18,"2020-04-30 12:14:58",301.15,1018,65,301.15,301.15,802,"Clouds","scattered clouds","03d",1,NA,40,10000,1588266898,"Candelaria",-76.35,3.41,"CO",-18000,1588244121,1588288173,304.53,NA,NA
"221",3673164,"Palmira",3.53944,-76.303612,"CO","COpalmira",19,"2020-04-30 12:14:58",301.15,1018,65,301.15,301.15,802,"Clouds","scattered clouds","03d",1,NA,40,10000,1588266898,"Palmira",-76.3,3.54,"CO",-18000,1588244100,1588288169,304.53,NA,NA
"222",3668028,"Silvania",4.40367,-74.386703,"CO","COsilvania",20,"2020-04-30 12:14:53",294.15,1029,46,294.15,294.15,803,"Clouds","broken clouds","04d",3.6,110,75,10000,1588266893,"Silvania",-74.39,4.4,"CO",-18000,1588243586,1588287766,291.4,NA,NA
"223",3669332,"San Martin",3.69637,-73.699577,"CO","COsan martin",1,"2020-04-30 12:14:53",302.15,1016,70,302.15,302.15,802,"Clouds","scattered clouds","03d",2.02,76,40,10000,1588266893,"San Martin",-73.7,3.7,"CO",-18000,1588243466,1588287556,305.96,NA,NA
"224",3666502,"Ulloa",4.70444,-75.74028,"CO","COulloa",2,"2020-04-30 12:14:53",298.15,1020,78,298.15,298.15,802,"Clouds","scattered clouds","03d",2.6,330,40,10000,1588266893,"Ulloa",-75.74,4.7,"CO",-18000,1588243891,1588288110,300.46,NA,NA
"225",3689833,"Anserma",5.33278,-75.791107,"CO","COanserma",3,"2020-04-30 12:14:59",298.15,1020,78,298.15,298.15,802,"Clouds","scattered clouds","03d",2.6,330,40,10000,1588266899,"Anserma",-75.79,5.33,"CO",-18000,1588243862,1588288163,300.46,NA,NA
"226",3667290,"Tenjo",4.8727,-74.144348,"CO","COtenjo",4,"2020-04-30 12:14:53",294.15,1029,46,294.15,294.15,803,"Clouds","broken clouds","04d",3.6,110,75,10000,1588266893,"Tenjo",-74.14,4.87,"CO",-18000,1588243496,1588287737,291.4,NA,NA
"227",3670745,"Riohacha",11.54444,-72.907219,"CO","COriohacha",5,"2020-04-30 12:14:53",307.15,1012,46,307.15,307.15,801,"Clouds","few clouds","02d",7.2,80,20,10000,1588266893,"Riohacha",-72.91,11.54,"CO",-18000,1588242759,1588287884,306.15,NA,NA
"228",3689570,"Arjona",10.25444,-75.343887,"CO","COarjona",6,"2020-04-30 12:14:59",306.15,1011,63,306.15,306.15,801,"Clouds","few clouds","02d",4.1,220,20,10000,1588266899,"Arjona",-75.34,10.25,"CO",-18000,1588243429,1588288380,309.7,NA,NA
"229",3667717,"Suesca",5.10289,-73.798447,"CO","COsuesca",7,"2020-04-30 12:14:53",294.15,1029,46,294.15,294.15,803,"Clouds","broken clouds","04d",3.6,110,75,10000,1588266893,"Suesca",-73.8,5.1,"CO",-18000,1588243399,1588287670,291.4,NA,NA
"230",3686233,"Circasia",4.61889,-75.635834,"CO","COcircasia",8,"2020-04-30 12:14:58",298.15,1020,73,298.15,298.15,803,"Clouds","broken clouds","04d",1.1,252,75,10000,1588266898,"Circasia",-75.64,4.62,"CO",-18000,1588243872,1588288081,300.99,NA,NA
"231",3679554,"La Ceja",6.03082,-75.431503,"CO","COla ceja",9,"2020-04-30 12:14:58",292.47,1028,77,292.04,293.15,802,"Clouds","scattered clouds","03d",3.1,200,40,10000,1588266898,"La Ceja",-75.43,6.03,"CO",-18000,1588243730,1588288122,291.98,NA,NA
"232",3667820,"Sonson",5.71062,-75.310677,"CO","COsonson",10,"2020-04-30 12:14:53",292.47,1028,77,292.04,293.15,802,"Clouds","scattered clouds","03d",3.1,200,40,10000,1588266893,"Sonson",-75.31,5.71,"CO",-18000,1588243722,1588288073,291.98,NA,NA
"233",3686272,"Cienaga de Oro",8.87443,-75.620277,"CO","COcienaga de oro",11,"2020-04-30 12:14:58",305.15,1012,66,305.15,305.15,803,"Clouds","broken clouds","04d",2.56,261,75,10000,1588266898,"Cienaga de Oro",-75.62,8.87,"CO",-18000,1588243588,1588288355,309.68,NA,NA
"234",3670419,"Sahagun",8.94616,-75.442749,"CO","COsahagun",12,"2020-04-30 12:14:53",305.15,1012,66,305.15,305.15,803,"Clouds","broken clouds","04d",2.55,245,75,10000,1588266893,"Sahagun",-75.44,8.95,"CO",-18000,1588243540,1588288317,309.68,NA,NA
"235",3686922,"Cerete",8.88479,-75.79052,"CO","COcerete",13,"2020-04-30 12:14:58",305.15,1012,66,305.15,305.15,803,"Clouds","broken clouds","04d",2.5,269,75,10000,1588266898,"Cerete",-75.79,8.88,"CO",-18000,1588243628,1588288396,309.72,NA,NA
"236",3666577,"Turbaco",10.32944,-75.411369,"CO","COturbaco",14,"2020-04-30 12:14:53",306.15,1011,63,306.15,306.15,801,"Clouds","few clouds","02d",4.1,220,20,10000,1588266893,"Turbaco",-75.41,10.33,"CO",-18000,1588243440,1588288402,309.7,NA,NA
"237",3688006,"Cajica",4.91857,-74.027992,"CO","COcajica",15,"2020-04-30 12:14:58",294.15,1029,46,294.15,294.15,803,"Clouds","broken clouds","04d",3.6,110,75,10000,1588266898,"Cajica",-74.03,4.92,"CO",-18000,1588243466,1588287714,291.4,NA,NA
"238",3670475,"Sabaneta",6.15,-75.599998,"CO","COsabaneta",16,"2020-04-30 12:14:53",293.93,1022,61,292.04,298.15,802,"Clouds","scattered clouds","03d",0.15,51,40,10000,1588266893,"Sabaneta",-75.6,6.15,"CO",-18000,1588243763,1588288171,294.75,NA,NA
"239",3667873,"Sogamoso",5.71434,-72.933907,"CO","COsogamoso",17,"2020-04-30 12:14:53",290.55,1013,36,290.55,290.55,500,"Rain","light rain","10d",2.19,112,51,NA,1588266893,"Sogamoso",-72.93,5.71,"CO",-18000,1588243151,1588287501,287.37,1013,761
"240",3673424,"Pacho",5.13278,-74.159767,"CO","COpacho",18,"2020-04-30 12:14:58",294.15,1029,46,294.15,294.15,803,"Clouds","broken clouds","04d",3.6,110,75,10000,1588266898,"Pacho",-74.16,5.13,"CO",-18000,1588243484,1588287759,291.4,NA,NA
"241",3682047,"Gigante",2.38677,-75.545311,"CO","COgigante",19,"2020-04-30 12:14:58",306.15,1014,43,306.15,306.15,802,"Clouds","scattered clouds","03d",2.6,NA,40,10000,1588266898,"Gigante",-75.55,2.39,"CO",-18000,1588243995,1588287915,307.44,NA,NA
"242",3665973,"Villamaria",5.04492,-75.514603,"CO","COvillamaria",20,"2020-04-30 12:14:53",298.15,1020,78,298.15,298.15,802,"Clouds","scattered clouds","03d",2.6,330,40,10000,1588266893,"Villamaria",-75.51,5.04,"CO",-18000,1588243814,1588288077,300.46,NA,NA
"243",3686279,"Cienaga",11.00703,-74.24765,"CO","COcienaga",1,"2020-04-30 12:14:58",302.15,1013,74,302.15,302.15,803,"Clouds","broken clouds","04d",3.6,260,75,10000,1588266898,"Cienaga",-74.25,11.01,"CO",-18000,1588243116,1588288169,305.38,NA,NA
"244",3667760,"Subachoque",4.92614,-74.172989,"CO","COsubachoque",2,"2020-04-30 12:14:53",294.15,1029,46,294.15,294.15,803,"Clouds","broken clouds","04d",3.6,110,75,10000,1588266893,"Subachoque",-74.17,4.93,"CO",-18000,1588243499,1588287748,291.4,NA,NA
"245",3665895,"Villeta",5.00886,-74.47226,"CO","COvilleta",3,"2020-04-30 12:14:53",294.15,1029,46,294.15,294.15,803,"Clouds","broken clouds","04d",3.6,110,75,10000,1588266893,"Villeta",-74.47,5.01,"CO",-18000,1588243566,1588287825,291.4,NA,NA
"246",3682160,"Garagoa",5.08236,-73.363342,"CO","COgaragoa",4,"2020-04-30 12:14:58",292.82,1013,47,292.82,292.82,500,"Rain","light rain","10d",2.24,112,93,NA,1588266898,"Garagoa",-73.36,5.08,"CO",-18000,1588243295,1588287563,290.8,1013,820
"247",3666680,"Trujillo",4.21217,-76.31945,"CO","COtrujillo",5,"2020-04-30 12:14:53",298.15,1020,73,298.15,298.15,803,"Clouds","broken clouds","04d",0.74,327,75,10000,1588266893,"Trujillo",-76.32,4.21,"CO",-18000,1588244062,1588288217,301.24,NA,NA
"248",3688254,"Bugalagrande",4.21207,-76.15564,"CO","CObugalagrande",6,"2020-04-30 12:14:58",298.15,1020,73,298.15,298.15,803,"Clouds","broken clouds","04d",0.49,323,75,10000,1588266898,"Bugalagrande",-76.16,4.21,"CO",-18000,1588244023,1588288179,301.42,NA,NA
"249",3671315,"Puerto Tejada",3.23114,-76.416679,"CO","COpuerto tejada",7,"2020-04-30 12:14:58",301.15,1018,65,301.15,301.15,802,"Clouds","scattered clouds","03d",1,NA,40,10000,1588266898,"Puerto Tejada",-76.42,3.23,"CO",-18000,1588244149,1588288178,304.53,NA,NA
"250",3690577,"Acacias",3.98695,-73.757973,"CO","COacacias",8,"2020-04-30 12:14:59",302.15,1016,70,302.15,302.15,802,"Clouds","scattered clouds","03d",1.84,102,40,10000,1588266899,"Acacias",-73.76,3.99,"CO",-18000,1588243462,1588287589,306.08,NA,NA
"251",3690520,"Agrado",2.25725,-75.771423,"CO","COagrado",9,"2020-04-30 12:14:59",301.83,1013,46,301.83,301.83,500,"Rain","light rain","10d",2.4,185,6,NA,1588266899,"Agrado",-75.77,2.26,"CO",-18000,1588244056,1588287959,302.1,1013,922
"252",3682292,"Fundacion",10.52066,-74.185043,"CO","COfundacion",10,"2020-04-30 12:14:58",308.71,1003,54,308.71,308.71,804,"Clouds","overcast clouds","04d",0.45,137,97,NA,1588266898,"Fundacion",-74.19,10.52,"CO",-18000,1588243135,1588288122,314.69,NA,NA
"253",3666519,"Ubate",5.30933,-73.815742,"CO","COubate",11,"2020-04-30 12:14:53",292.67,1014,32,292.67,292.67,500,"Rain","light rain","10d",1.2,129,75,NA,1588266893,"Ubate",-73.82,5.31,"CO",-18000,1588243390,1588287689,290.22,1014,758
"254",3676397,"Lorica",9.23648,-75.813499,"CO","COlorica",12,"2020-04-30 12:14:58",305.15,1012,66,305.15,305.15,803,"Clouds","broken clouds","04d",1.93,244,75,10000,1588266898,"Lorica",-75.81,9.24,"CO",-18000,1588243609,1588288425,310.12,NA,NA
"255",3668572,"Santander de Quilichao",3.00945,-76.48494,"CO","COsantander de quilichao",13,"2020-04-30 12:14:53",301.15,1018,65,301.15,301.15,802,"Clouds","scattered clouds","03d",1,NA,40,10000,1588266893,"Santander de Quilichao",-76.48,3.01,"CO",-18000,1588244178,1588288178,304.53,NA,NA
"256",3684917,"El Banco",9.00114,-73.975807,"CO","COel banco",14,"2020-04-30 12:14:58",307.59,1010,53,307.59,307.59,500,"Rain","light rain","10d",1.48,265,76,NA,1588266898,"El Banco",-73.98,9,"CO",-18000,1588243186,1588287970,312.05,1010,1007
"257",3665913,"Villa del Rosario",7.83389,-72.474167,"CO","COvilla del rosario",15,"2020-04-30 12:14:53",305.15,1015,55,305.15,305.15,802,"Clouds","scattered clouds","03d",1.5,NA,40,10000,1588266893,"Villa del Rosario",-72.47,7.83,"CO",-18000,1588242901,1588287530,308.7,NA,NA
"258",3670856,"Restrepo",3.82203,-76.522423,"CO","COrestrepo",16,"2020-04-30 12:14:58",301.15,1018,65,301.15,301.15,802,"Clouds","scattered clouds","03d",1,NA,40,10000,1588266898,"Restrepo",-76.52,3.82,"CO",-18000,1588244135,1588288240,304.53,NA,NA
"259",3679065,"La Estrella",6.15769,-75.643173,"CO","COla estrella",17,"2020-04-30 12:14:58",294.48,1022,61,292.04,298.15,802,"Clouds","scattered clouds","03d",0.14,357,40,10000,1588266898,"La Estrella",-75.64,6.16,"CO",-18000,1588243772,1588288181,295.48,NA,NA
"260",3674702,"Miranda",3.24991,-76.228142,"CO","COmiranda",18,"2020-04-30 12:14:58",301.15,1018,65,301.15,301.15,802,"Clouds","scattered clouds","03d",1,NA,40,10000,1588266898,"Miranda",-76.23,3.25,"CO",-18000,1588244102,1588288134,304.53,NA,NA
"261",3672110,"Pitalito",1.84966,-76.047852,"CO","COpitalito",19,"2020-04-30 12:14:58",297.96,1013,47,297.96,297.96,500,"Rain","light rain","10d",2.02,141,18,NA,1588266898,"Pitalito",-76.05,1.85,"CO",-18000,1588244150,1588288000,297.39,1013,877
"262",3668332,"Santo Tomas",10.75773,-74.754509,"CO","COsanto tomas",20,"2020-04-30 12:14:53",307.15,1011,56,307.15,307.15,802,"Clouds","scattered clouds","03d",3.6,90,40,10000,1588266893,"Santo Tomas",-74.75,10.76,"CO",-18000,1588243253,1588288273,310.42,NA,NA
"263",3670849,"El Retiro",6.05861,-75.503059,"CO","COel retiro",1,"2020-04-30 12:14:58",292.49,1028,77,292.04,293.15,802,"Clouds","scattered clouds","03d",3.1,200,40,10000,1588266898,"El Retiro",-75.5,6.06,"CO",-18000,1588243745,1588288141,292.01,NA,NA
"264",3665678,"Yotoco",3.86048,-76.383636,"CO","COyotoco",2,"2020-04-30 12:14:53",301.15,1018,65,301.15,301.15,802,"Clouds","scattered clouds","03d",1,NA,40,10000,1588266893,"Yotoco",-76.38,3.86,"CO",-18000,1588244099,1588288209,304.53,NA,NA
"265",3668323,"Santuario",6.13833,-75.264168,"CO","COsantuario",3,"2020-04-30 12:14:53",292.45,1028,77,292.04,293.15,802,"Clouds","scattered clouds","03d",3.1,200,40,10000,1588266893,"Santuario",-75.26,6.14,"CO",-18000,1588243682,1588288089,291.95,NA,NA
"266",3671325,"Puerto Santander",8.36361,-72.406303,"CO","COpuerto santander",4,"2020-04-30 12:14:58",305.15,1015,55,305.15,305.15,802,"Clouds","scattered clouds","03d",1.5,NA,40,10000,1588266898,"Puerto Santander",-72.41,8.36,"CO",-18000,1588242852,1588287551,308.7,NA,NA
"267",3677010,"La Tebaida",4.45265,-75.78746,"CO","COla tebaida",5,"2020-04-30 12:14:58",298.15,1020,73,298.15,298.15,803,"Clouds","broken clouds","04d",1.26,285,75,10000,1588266898,"La Tebaida",-75.79,4.45,"CO",-18000,1588243919,1588288106,300.88,NA,NA
"268",3671497,"Puerto Colombia",10.98778,-74.95472,"CO","COpuerto colombia",6,"2020-04-30 12:14:58",307.15,1011,56,307.15,307.15,802,"Clouds","scattered clouds","03d",3.6,90,40,10000,1588266898,"Puerto Colombia",-74.95,10.99,"CO",-18000,1588243286,1588288336,310.42,NA,NA
"269",3675595,"Malambo",10.85953,-74.773857,"CO","COmalambo",7,"2020-04-30 12:14:58",307.15,1011,56,307.15,307.15,802,"Clouds","scattered clouds","03d",3.6,90,40,10000,1588266898,"Malambo",-74.77,10.86,"CO",-18000,1588243251,1588288284,310.42,NA,NA
"270",3667158,"Tierralta",8.17361,-76.059174,"CO","COtierralta",8,"2020-04-30 12:14:53",304.08,1011,66,304.08,304.08,500,"Rain","light rain","10d",2.39,279,71,NA,1588266893,"Tierralta",-76.06,8.17,"CO",-18000,1588243740,1588288414,308.12,1011,1005
"271",3666640,"Tumaco",1.79861,-78.815559,"CO","COtumaco",9,"2020-04-30 12:14:53",302.41,1012,68,302.41,302.41,801,"Clouds","few clouds","02d",3.42,264,14,NA,1588266893,"Tumaco",-78.82,1.8,"CO",-18000,1588244818,1588288662,305.11,1012,1011
"272",3666582,"Tuquerres",1.09234,-77.62085,"CO","COtuquerres",10,"2020-04-30 12:14:53",291.73,1033,63,290.15,295.15,803,"Clouds","broken clouds","04d",4.1,100,75,10000,1588266893,"Tuquerres",-77.62,1.09,"CO",-18000,1588244575,1588288328,289.3,NA,NA
"273",3689235,"Baranoa",10.79408,-74.916397,"CO","CObaranoa",11,"2020-04-30 12:14:59",307.15,1011,56,307.15,307.15,802,"Clouds","scattered clouds","03d",3.6,90,40,10000,1588266899,"Baranoa",-74.92,10.79,"CO",-18000,1588243292,1588288315,310.42,NA,NA
"274",3681368,"Guatape",6.23274,-75.158638,"CO","COguatape",12,"2020-04-30 12:14:58",292.46,1028,77,292.04,293.15,802,"Clouds","scattered clouds","03d",3.1,200,40,10000,1588266898,"Guatape",-75.16,6.23,"CO",-18000,1588243652,1588288071,291.97,NA,NA
"275",3684266,"El Dovio",4.5079,-76.236191,"CO","COel dovio",13,"2020-04-30 12:14:58",298.15,1020,73,298.15,298.15,803,"Clouds","broken clouds","04d",1.72,286,75,10000,1588266898,"El Dovio",-76.24,4.51,"CO",-18000,1588244023,1588288218,300.55,NA,NA
"276",3682313,"Frontino",6.78005,-76.128799,"CO","COfrontino",14,"2020-04-30 12:14:58",296.49,1012,55,296.49,296.49,501,"Rain","moderate rain","10d",1.05,293,81,NA,1588266898,"Frontino",-76.13,6.78,"CO",-18000,1588243849,1588288339,296.95,1012,867
"278",3685345,"Curiti",6.60519,-73.068092,"CO","COcuriti",16,"2020-04-30 12:14:58",300.15,1018,69,300.15,300.15,803,"Clouds","broken clouds","04d",3.1,320,75,10000,1588266898,"Curiti",-73.07,6.61,"CO",-18000,1588243126,1588287594,302.07,NA,NA
"279",3686158,"Cocorna",6.0573,-75.185242,"CO","COcocorna",17,"2020-04-30 12:14:58",292.45,1028,77,292.04,293.15,802,"Clouds","scattered clouds","03d",3.1,200,40,10000,1588266898,"Cocorna",-75.19,6.06,"CO",-18000,1588243670,1588288067,291.95,NA,NA
"280",3686255,"Cimitarra",6.31419,-73.949677,"CO","COcimitarra",18,"2020-04-30 12:14:58",305.03,1013,56,305.03,305.03,500,"Rain","light rain","10d",1.35,290,91,NA,1588266898,"Cimitarra",-73.95,6.31,"CO",-18000,1588243356,1588287785,308.78,1013,989
"281",3686027,"Concepcion",6.7662,-72.694,"CO","COconcepcion",19,"2020-04-30 12:14:58",300.15,1018,69,300.15,300.15,803,"Clouds","broken clouds","04d",3.1,320,75,10000,1588266898,"Concepcion",-72.69,6.77,"CO",-18000,1588243024,1588287513,302.07,NA,NA
"282",3665851,"Viterbo",5.06242,-75.87159,"CO","COviterbo",20,"2020-04-30 12:14:53",298.15,1020,78,298.15,298.15,802,"Clouds","scattered clouds","03d",2.6,330,40,10000,1588266893,"Viterbo",-75.87,5.06,"CO",-18000,1588243899,1588288165,300.46,NA,NA
"283",3671950,"Polonuevo",10.77697,-74.853439,"CO","COpolonuevo",1,"2020-04-30 12:14:58",307.15,1011,56,307.15,307.15,802,"Clouds","scattered clouds","03d",3.6,90,40,10000,1588266898,"Polonuevo",-74.85,10.78,"CO",-18000,1588243276,1588288298,310.42,NA,NA
"284",3685432,"Cumbal",0.90875,-77.791451,"CO","COcumbal",2,"2020-04-30 12:14:58",290.15,1033,63,290.15,290.15,803,"Clouds","broken clouds","04d",4.1,100,75,10000,1588266898,"Cumbal",-77.79,0.91,"CO",-18000,1588244628,1588288357,287.3,NA,NA
"286",3671916,"Popayan",2.43823,-76.613159,"CO","COpopayan",4,"2020-04-30 12:14:58",297.41,1013,38,297.41,297.41,500,"Rain","light rain","10d",1.37,262,11,NA,1588266898,"Popayan",-76.61,2.44,"CO",-18000,1588244246,1588288172,296.24,1013,832
"287",3673899,"Neiva",2.9273,-75.281883,"CO","COneiva",5,"2020-04-30 12:14:58",306.15,1014,43,306.15,306.15,802,"Clouds","scattered clouds","03d",2.6,NA,40,10000,1588266898,"Neiva",-75.28,2.93,"CO",-18000,1588243895,1588287885,307.44,NA,NA
"288",3670218,"San Andres",12.58472,-81.700562,"CO","COsan andres",6,"2020-04-30 12:14:53",304.15,1015,62,304.15,304.15,801,"Clouds","few clouds","02d",4.1,70,20,10000,1588266893,"San Andres",-81.7,12.58,"CO",-18000,1588244797,1588290064,306.44,NA,NA
"289",3674453,"Monteria",8.74798,-75.881432,"CO","COmonteria",7,"2020-04-30 12:14:58",305.15,1012,66,305.15,305.15,803,"Clouds","broken clouds","04d",2.95,281,75,10000,1588266898,"Monteria",-75.88,8.75,"CO",-18000,1588243659,1588288409,309.4,NA,NA
"290",3674463,"Montenegro",4.56639,-75.751106,"CO","COmontenegro",8,"2020-04-30 12:14:58",298.15,1020,73,298.15,298.15,803,"Clouds","broken clouds","04d",1.4,270,75,10000,1588266898,"Montenegro",-75.75,4.57,"CO",-18000,1588243902,1588288104,300.78,NA,NA
"291",3674962,"Medellin",6.25184,-75.563591,"CO","COmedellin",9,"2020-04-30 12:14:58",294.14,1022,61,292.04,298.15,802,"Clouds","scattered clouds","03d",0.44,80,40,10000,1588266898,"Medellin",-75.56,6.25,"CO",-18000,1588243747,1588288168,294.82,NA,NA
"292",3675707,"Madrid",4.73244,-74.264191,"CO","COmadrid",10,"2020-04-30 12:14:58",294.15,1029,46,294.15,294.15,803,"Clouds","broken clouds","04d",3.6,110,75,10000,1588266898,"Madrid",-74.26,4.73,"CO",-18000,1588243534,1588287757,291.4,NA,NA
"293",3676720,"La Virginia",4.89972,-75.8825,"CO","COla virginia",11,"2020-04-30 12:14:58",298.15,1020,78,298.15,298.15,802,"Clouds","scattered clouds","03d",2.6,330,40,10000,1588266898,"La Virginia",-75.88,4.9,"CO",-18000,1588243911,1588288157,300.46,NA,NA
"294",3676928,"La Union",4.53282,-76.10318,"CO","COla union",12,"2020-04-30 12:14:58",298.15,1020,73,298.15,298.15,803,"Clouds","broken clouds","04d",1.05,284,75,10000,1588266898,"La Union",-76.1,4.53,"CO",-18000,1588243988,1588288185,301.02,NA,NA
"296",3680387,"Jamundi",3.26074,-76.534988,"CO","COjamundi",14,"2020-04-30 12:14:58",301.15,1018,65,301.15,301.15,802,"Clouds","scattered clouds","03d",1,NA,40,10000,1588266898,"Jamundi",-76.53,3.26,"CO",-18000,1588244174,1588288206,304.53,NA,NA
"297",3681957,"Granada",3.53861,-73.700562,"CO","COgranada",15,"2020-04-30 12:14:58",305.71,1013,48,305.71,305.71,500,"Rain","light rain","10d",1.98,78,56,NA,1588266898,"Granada",-73.7,3.54,"CO",-18000,1588243477,1588287545,308.07,1013,976
"298",3682238,"Galapa",10.89686,-74.886002,"CO","COgalapa",16,"2020-04-30 12:14:58",307.15,1011,56,307.15,307.15,802,"Clouds","scattered clouds","03d",3.6,90,40,10000,1588266898,"Galapa",-74.89,10.9,"CO",-18000,1588243277,1588288316,310.42,NA,NA
"299",3682274,"Fusagasuga",4.33646,-74.363777,"CO","COfusagasuga",17,"2020-04-30 12:14:58",294.15,1029,46,294.15,294.15,803,"Clouds","broken clouds","04d",3.6,110,75,10000,1588266898,"Fusagasuga",-74.36,4.34,"CO",-18000,1588243583,1588287755,291.4,NA,NA
"300",3682393,"Florida",3.3223,-76.234802,"CO","COflorida",18,"2020-04-30 12:14:58",301.15,1018,65,301.15,301.15,802,"Clouds","scattered clouds","03d",1,NA,40,10000,1588266898,"Florida",-76.23,3.32,"CO",-18000,1588244098,1588288138,304.53,NA,NA
"301",3684615,"El Cerrito",3.68549,-76.313721,"CO","COel cerrito",19,"2020-04-30 12:14:58",301.15,1018,65,301.15,301.15,802,"Clouds","scattered clouds","03d",1,NA,40,10000,1588266898,"El Cerrito",-76.31,3.69,"CO",-18000,1588244093,1588288181,304.53,NA,NA
"302",3687238,"Cartagena",10.39972,-75.514442,"CO","COcartagena",20,"2020-04-30 12:14:58",306.15,1011,63,306.15,306.15,801,"Clouds","few clouds","02d",4.1,220,20,10000,1588266898,"Cartagena",-75.51,10.4,"CO",-18000,1588243460,1588288431,309.7,NA,NA
"303",3687952,"Caldas",6.09106,-75.635689,"CO","COcaldas",1,"2020-04-30 12:14:58",294.28,1022,61,292.04,298.15,802,"Clouds","scattered clouds","03d",0.19,353,40,10000,1588266898,"Caldas",-75.64,6.09,"CO",-18000,1588243776,1588288177,295.18,NA,NA
"304",3688451,"Buenaventura",3.8801,-77.031158,"CO","CObuenaventura",2,"2020-04-30 12:14:58",303.25,1012,68,303.25,303.25,500,"Rain","light rain","10d",2.71,254,53,NA,1588266898,"Buenaventura",-77.03,3.88,"CO",-18000,1588244254,1588288366,306.9,1012,1011
"306",3689798,"Apartado",7.88299,-76.62587,"CO","COapartado",4,"2020-04-30 12:14:59",302.15,1013,79,302.15,302.15,721,"Haze","haze","50d",0.78,292,75,9000,1588266899,"Apartado",-76.63,7.88,"CO",-18000,1588243896,1588288532,308.01,NA,NA
"307",3689905,"Andalucia",4.17061,-76.166412,"CO","COandalucia",5,"2020-04-30 12:14:59",298.15,1020,73,298.15,298.15,803,"Clouds","broken clouds","04d",0.46,328,75,10000,1588266899,"Andalucia",-76.17,4.17,"CO",-18000,1588244028,1588288179,301.44,NA,NA
"308",3514674,"Gustavo A. Madero",19.478609,-99.095833,"MX","MXgustavo a. madero",6,"2020-04-30 12:14:42",293.44,1031,37,293.15,293.71,801,"Clouds","few clouds","02d",2.1,80,20,16093,1588266882,"Gustavo A. Madero",-99.1,19.48,"MX",-18000,1588248481,1588294731,290.87,NA,NA
"309",3521168,"Poza Rica de Hidalgo",20.53315,-97.459457,"MX","MXpoza rica de hidalgo",7,"2020-04-30 12:14:43",299.15,1021,69,299.15,299.15,803,"Clouds","broken clouds","04d",4.39,50,75,11265,1588266883,"Poza Rica de Hidalgo",-97.46,20.53,"MX",-18000,1588248009,1588294416,299.71,NA,NA
"310",3522484,"Ocosingo",17.066669,-92.25,"MX","MXocosingo",8,"2020-04-30 12:14:43",302.34,1014,30,302.34,302.34,803,"Clouds","broken clouds","04d",2.23,26,68,NA,1588266883,"Ocosingo",-92.25,17.07,"MX",-18000,1588247014,1588292911,300.78,1014,903
"311",3522551,"Nuevo Laredo",27.47629,-99.516388,"MX","MXnuevo laredo",9,"2020-04-30 12:14:43",301.13,1021,42,300.15,302.15,800,"Clear","clear sky","01d",3.1,180,5,12874,1588266883,"Nuevo Laredo",-99.52,27.48,"MX",-18000,1588247950,1588295465,300.18,NA,NA
"312",3523202,"Milpa Alta",19.19194,-99.023613,"MX","MXmilpa alta",10,"2020-04-30 12:14:49",295.47,1031,37,293.15,300.15,801,"Clouds","few clouds","02d",2.1,80,20,16093,1588266889,"Milpa Alta",-99.02,19.19,"MX",-18000,1588248484,1588294691,293.28,NA,NA
"313",3527545,"Frontera",18.58333,-92.650002,"MX","MXfrontera",11,"2020-04-30 12:14:49",305.15,1017,59,305.15,305.15,721,"Haze","haze","50d",2.6,310,75,4828,1588266889,"Frontera",-92.65,18.58,"MX",-18000,1588247000,1588293117,308.55,NA,NA
"314",3528756,"El Mante",22.73333,-98.966667,"MX","MXel mante",12,"2020-04-30 12:14:49",303.15,1015,46,303.15,303.15,500,"Rain","light rain","10d",1.79,90,95,NA,1588266889,"El Mante",-98.97,22.73,"MX",-18000,1588248203,1588294947,304.32,NA,NA
"315",3529947,"Cuernavaca",18.91667,-99.25,"MX","MXcuernavaca",13,"2020-04-30 12:14:49",300.15,1023,32,300.15,300.15,803,"Clouds","broken clouds","04d",3.1,150,75,12874,1588266889,"Cuernavaca",-99.25,18.92,"MX",-18000,1588248559,1588294726,297.73,NA,NA
"316",3530531,"Coatepec",19.450001,-96.966667,"MX","MXcoatepec",14,"2020-04-30 12:14:43",297.89,1020,38,297.89,297.89,500,"Rain","light rain","10d",2.63,102,66,NA,1588266883,"Coatepec",-96.97,19.45,"MX",-18000,1588247973,1588294218,295.95,1020,888
"317",3530594,"Ciudad Madero",22.26667,-97.833328,"MX","MXciudad madero",15,"2020-04-30 12:14:49",301.15,1020,74,301.15,301.15,803,"Clouds","broken clouds","04d",6.7,10,75,9656,1588266889,"Ciudad Madero",-97.83,22.27,"MX",-18000,1588247966,1588294638,301.66,NA,NA
"318",3531013,"Chiapa de Corzo",16.700001,-93,"MX","MXchiapa de corzo",16,"2020-04-30 12:14:49",305.15,1017,46,305.15,305.15,711,"Smoke","smoke","50d",6.2,300,40,4828,1588266889,"Chiapa de Corzo",-93,16.7,"MX",-18000,1588247220,1588293065,304,NA,NA
"320",3532592,"Atlixco",18.90815,-98.436127,"MX","MXatlixco",17,"2020-04-30 12:14:49",293.15,1030,37,293.15,293.15,800,"Clear","clear sky","01d",1.5,40,5,17702,1588266889,"Atlixco",-98.44,18.91,"MX",-18000,1588248365,1588294531,290.95,NA,NA
"322",3815392,"Zacatelco",19.215281,-98.238892,"MX","MXzacatelco",19,"2020-04-30 12:14:59",293.15,1030,37,293.15,293.15,800,"Clear","clear sky","01d",1.5,40,5,17702,1588266899,"Zacatelco",-98.24,19.22,"MX",-18000,1588248294,1588294506,290.95,NA,NA
"323",3827414,"Huixquilucan",19.360279,-99.351387,"MX","MXhuixquilucan",20,"2020-04-30 12:14:59",292.09,1031,37,289.15,293.71,801,"Clouds","few clouds","02d",2.1,80,20,16093,1588266899,"Huixquilucan",-99.35,19.36,"MX",-18000,1588248550,1588294783,289.29,NA,NA
"324",3979770,"Zapopan",20.716669,-103.400002,"MX","MXzapopan",1,"2020-04-30 12:15:13",297.45,1024,29,297.04,298.15,800,"Clear","clear sky","01d",5.1,80,5,16093,1588266913,"Zapopan",-103.4,20.72,"MX",-18000,1588249420,1588295857,292.78,NA,NA
"325",3980844,"Tuxpan",19.549999,-103.400002,"MX","MXtuxpan",2,"2020-04-30 12:15:13",299.15,1017,47,299.15,299.15,802,"Clouds","scattered clouds","03d",2.75,102,40,9656,1588266913,"Tuxpan",-103.4,19.55,"MX",-18000,1588249508,1588295769,298.42,NA,NA
"326",3981941,"Tepic",21.5,-104.900002,"MX","MXtepic",3,"2020-04-30 12:15:13",301.15,1018,45,301.15,301.15,800,"Clear","clear sky","01d",1.03,334,5,19312,1588266913,"Tepic",-104.9,21.5,"MX",-21600,1588249721,1588296276,302.02,NA,NA
"327",3984583,"Santa Catarina",25.67325,-100.45813,"MX","MXsanta catarina",4,"2020-04-30 12:15:13",295.4,1023,53,294.82,297.15,803,"Clouds","broken clouds","04d",3.1,140,75,19312,1588266913,"Santa Catarina",-100.46,25.67,"MX",-18000,1588248326,1588295540,293.91,NA,NA
"328",3985620,"San Luis de la Paz",21.299999,-100.51667,"MX","MXsan luis de la paz",5,"2020-04-30 12:15:13",297.32,1028,38,296.48,298.15,802,"Clouds","scattered clouds","03d",4.57,72,38,NA,1588266913,"San Luis de la Paz",-100.52,21.3,"MX",-18000,1588248685,1588295209,293.89,NA,NA
"330",3994469,"Ojinaga",29.566669,-104.416672,"MX","MXojinaga",7,"2020-04-30 12:15:13",300.74,1022,24,300.15,301.48,800,"Clear","clear sky","01d",2.1,100,1,16093,1588266913,"Ojinaga",-104.42,29.57,"MX",-21600,1588248944,1588296822,298.18,NA,NA
"331",3995402,"Morelia",19.700781,-101.184433,"MX","MXmorelia",8,"2020-04-30 12:15:13",297.15,1027,36,297.15,297.15,800,"Clear","clear sky","01d",3.6,20,5,12874,1588266913,"Morelia",-101.18,19.7,"MX",-18000,1588248964,1588295247,294.16,NA,NA
"332",3996426,"Matamoros",25.533331,-103.25,"MX","MXmatamoros",9,"2020-04-30 12:15:13",299.78,1023,41,299.15,300.37,800,"Clear","clear sky","01d",2.6,30,5,16093,1588266913,"Matamoros",-103.25,25.53,"MX",-18000,1588249007,1588296198,298.67,NA,NA
"333",3996663,"Manzanillo",19.05011,-104.318787,"MX","MXmanzanillo",10,"2020-04-30 12:15:13",299.15,1014,83,299.15,299.15,800,"Clear","clear sky","01d",3.1,150,5,16093,1588266913,"Manzanillo",-104.32,19.05,"MX",-18000,1588249765,1588295953,302.16,NA,NA
"334",4004898,"Hermosillo",29.066669,-110.966667,"MX","MXhermosillo",11,"2020-04-30 12:15:13",307.1,1009,16,305.93,308.15,803,"Clouds","broken clouds","04d",0.89,203,71,NA,1588266913,"Hermosillo",-110.97,29.07,"MX",-25200,1588250559,1588298351,305.27,NA,NA
"336",4013516,"Colima",19.23333,-103.716667,"MX","MXcolima",13,"2020-04-30 12:15:13",299.15,1017,47,299.15,299.15,802,"Clouds","scattered clouds","03d",2.22,200,40,9656,1588266913,"Colima",-103.72,19.23,"MX",-18000,1588249608,1588295822,298.79,NA,NA
"338",3665924,"Villapinzon",5.21617,-73.594902,"CO","COvillapinzon",15,"2020-04-30 12:14:53",290.28,1013,34,290.28,290.28,500,"Rain","light rain","10d",2.88,122,81,NA,1588266893,"Villapinzon",-73.59,5.22,"CO",-18000,1588243341,1588287628,286.45,1013,738
"340",3668472,"Santa Rosa",10.44472,-75.36972,"CO","COsanta rosa",17,"2020-04-30 12:14:53",306.15,1011,63,306.15,306.15,801,"Clouds","few clouds","02d",4.1,220,20,10000,1588266893,"Santa Rosa",-75.37,10.44,"CO",-18000,1588243423,1588288400,309.7,NA,NA
"341",3668594,"Santana",6.0575,-73.481117,"CO","COsantana",18,"2020-04-30 12:14:53",298.68,1013,36,298.68,298.68,500,"Rain","light rain","10d",1.82,340,31,NA,1588266893,"Santana",-73.48,6.06,"CO",-18000,1588243260,1588287656,297.28,1013,840
"342",3669128,"San Pedro",9.3956,-75.064758,"CO","COsan pedro",19,"2020-04-30 12:14:53",304.13,1010,63,304.13,304.13,500,"Rain","light rain","10d",2.25,179,99,NA,1588266893,"San Pedro",-75.06,9.4,"CO",-18000,1588243419,1588288256,307.85,1010,995
"345",3669857,"San Francisco",6.11667,-75.98333,"CO","COsan francisco",2,"2020-04-30 12:14:53",294.37,1022,61,292.04,298.15,802,"Clouds","scattered clouds","03d",0.54,101,40,10000,1588266893,"San Francisco",-75.98,6.12,"CO",-18000,1588243856,1588288260,295.05,NA,NA
"348",3669947,"San Diego",10.33427,-73.180038,"CO","COsan diego",5,"2020-04-30 12:14:53",306.15,1014,49,306.15,306.15,803,"Clouds","broken clouds","04d",2.6,40,75,10000,1588266893,"San Diego",-73.18,10.33,"CO",-18000,1588242905,1588287867,308.43,NA,NA
"349",3669956,"San Cristobal",9.87809,-75.25248,"CO","COsan cristobal",6,"2020-04-30 12:14:53",306.15,1011,63,306.15,306.15,801,"Clouds","few clouds","02d",4.1,220,20,10000,1588266893,"San Cristobal",-75.25,9.88,"CO",-18000,1588243432,1588288333,309.7,NA,NA
"351",3670700,"Risaralda",5.16647,-75.765953,"CO","COrisaralda",8,"2020-04-30 12:14:53",298.15,1020,78,298.15,298.15,802,"Clouds","scattered clouds","03d",2.6,330,40,10000,1588266893,"Risaralda",-75.77,5.17,"CO",-18000,1588243868,1588288148,300.46,NA,NA
"352",3671936,"Ponedera",10.64104,-74.750259,"CO","COponedera",9,"2020-04-30 12:14:58",307.15,1011,56,307.15,307.15,802,"Clouds","scattered clouds","03d",3.6,90,40,10000,1588266898,"Ponedera",-74.75,10.64,"CO",-18000,1588243261,1588288264,310.42,NA,NA
"353",3673286,"Palermo",2.89167,-75.4375,"CO","COpalermo",10,"2020-04-30 12:14:58",306.15,1014,43,306.15,306.15,802,"Clouds","scattered clouds","03d",2.6,NA,40,10000,1588266898,"Palermo",-75.44,2.89,"CO",-18000,1588243936,1588287921,307.44,NA,NA
"355",3674519,"Montebello",5.94806,-75.527496,"CO","COmontebello",12,"2020-04-30 12:14:58",292.47,1028,77,292.04,293.15,802,"Clouds","scattered clouds","03d",3.1,200,40,10000,1588266898,"Montebello",-75.53,5.95,"CO",-18000,1588243759,1588288141,291.98,NA,NA
"356",3675212,"Marsella",4.93722,-75.737778,"CO","COmarsella",13,"2020-04-30 12:14:58",298.15,1020,78,298.15,298.15,802,"Clouds","scattered clouds","03d",2.6,330,40,10000,1588266898,"Marsella",-75.74,4.94,"CO",-18000,1588243875,1588288126,300.46,NA,NA
"359",3679660,"La Calera",4.72069,-73.969261,"CO","COla calera",16,"2020-04-30 12:14:58",294.15,1029,46,294.15,294.15,803,"Clouds","broken clouds","04d",3.6,110,75,10000,1588266898,"La Calera",-73.97,4.72,"CO",-18000,1588243465,1588287686,291.4,NA,NA
"361",3682039,"Ginebra",3.72461,-76.266747,"CO","COginebra",18,"2020-04-30 12:14:58",301.15,1018,65,301.15,301.15,802,"Clouds","scattered clouds","03d",1,NA,40,10000,1588266898,"Ginebra",-76.27,3.72,"CO",-18000,1588244082,1588288174,304.53,NA,NA
"362",3682473,"Filandia",4.67472,-75.658333,"CO","COfilandia",19,"2020-04-30 12:14:58",298.15,1020,78,298.15,298.15,802,"Clouds","scattered clouds","03d",2.6,330,40,10000,1588266898,"Filandia",-75.66,4.67,"CO",-18000,1588243874,1588288089,300.46,NA,NA
"363",3685126,"Don Matias",6.48568,-75.394958,"CO","COdon matias",20,"2020-04-30 12:14:58",294.03,1028,77,292.04,298.15,802,"Clouds","scattered clouds","03d",3.1,200,40,10000,1588266898,"Don Matias",-75.39,6.49,"CO",-18000,1588243690,1588288143,294.12,NA,NA
"364",3685733,"Cota",4.80938,-74.098,"CO","COcota",1,"2020-04-30 12:14:58",294.15,1029,46,294.15,294.15,803,"Clouds","broken clouds","04d",3.6,110,75,10000,1588266898,"Cota",-74.1,4.81,"CO",-18000,1588243490,1588287724,291.4,NA,NA
"369",3515040,"Tulum",20.216669,-87.466667,"MX","MXtulum",6,"2020-04-30 12:14:42",303.55,1015,55,302.59,305.15,802,"Clouds","scattered clouds","03d",3.1,200,40,12874,1588266882,"Tulum",-87.47,20.22,"MX",-18000,1588245636,1588291995,305.23,NA,NA
"371",3517731,"Nextlalpan",19.744169,-99.073334,"MX","MXnextlalpan",8,"2020-04-30 12:14:43",293.44,1031,37,293.15,293.71,801,"Clouds","few clouds","02d",2.1,80,20,16093,1588266883,"Nextlalpan",-99.07,19.74,"MX",-18000,1588248455,1588294744,290.87,NA,NA
"373",3519412,"San Felipe del Progreso",19.71278,-99.951942,"MX","MXsan felipe del progreso",10,"2020-04-30 12:14:43",294.34,1032,51,289.15,299.26,801,"Clouds","few clouds","02d",2.1,280,20,11265,1588266883,"San Felipe del Progreso",-99.95,19.71,"MX",-18000,1588248668,1588294953,293.09,NA,NA
"375",3519622,"Amaxac de Guerrero",19.366671,-98.183327,"MX","MXamaxac de guerrero",12,"2020-04-30 12:14:43",293.15,1030,37,293.15,293.15,800,"Clear","clear sky","01d",1.5,40,5,17702,1588266883,"Amaxac de Guerrero",-98.18,19.37,"MX",-18000,1588248269,1588294502,290.95,NA,NA
"378",3526756,"Isla Mujeres",21.23114,-86.731049,"MX","MXisla mujeres",15,"2020-04-30 12:14:49",304.97,1015,59,304.82,305.15,803,"Clouds","broken clouds","04d",4.1,150,75,11265,1588266889,"Isla Mujeres",-86.73,21.23,"MX",-18000,1588245382,1588291893,307.23,NA,NA
"379",3526929,"Hueyotlipan",19.48333,-98.349998,"MX","MXhueyotlipan",16,"2020-04-30 12:14:49",293.15,1030,37,293.15,293.15,800,"Clear","clear sky","01d",1.5,40,5,17702,1588266889,"Hueyotlipan",-98.35,19.48,"MX",-18000,1588248301,1588294551,290.95,NA,NA
"381",3528788,"El Llano",20.049999,-99.300003,"MX","MXel llano",18,"2020-04-30 12:14:49",294.52,1020,24,294.52,294.52,801,"Clouds","few clouds","02d",3.08,49,18,NA,1588266889,"El Llano",-99.3,20.05,"MX",-18000,1588248487,1588294822,290.37,1020,803
"383",3530527,"Coatepec Harinas",18.89492,-99.721527,"MX","MXcoatepec harinas",20,"2020-04-30 12:14:49",294.87,1023,32,289.15,300.15,803,"Clouds","broken clouds","04d",3.1,150,75,12874,1588266889,"Coatepec Harinas",-99.72,18.89,"MX",-18000,1588248674,1588294837,291.44,NA,NA
"385",3531007,"Chiautla",19.533331,-98.883331,"MX","MXchiautla",2,"2020-04-30 12:14:49",293.44,1031,37,293.15,293.71,801,"Clouds","few clouds","02d",2.1,80,20,16093,1588266889,"Chiautla",-98.88,19.53,"MX",-18000,1588248425,1588294682,290.87,NA,NA
"389",3817745,"Acolman",19.625,-98.916672,"MX","MXacolman",6,"2020-04-30 12:14:59",293.44,1031,37,293.15,293.71,801,"Clouds","few clouds","02d",2.1,80,20,16093,1588266899,"Acolman",-98.92,19.62,"MX",-18000,1588248428,1588294699,290.87,NA,NA
"392",3995398,"Morelos",22.883329,-102.616669,"MX","MXmorelos",9,"2020-04-30 12:15:13",293.15,1027,37,293.15,293.15,802,"Clouds","scattered clouds","03d",5.12,148,40,16093,1588266913,"Morelos",-102.62,22.88,"MX",-18000,1588249067,1588295835,288.41,NA,NA
"393",4009788,"El Fuerte",26.41889,-108.619438,"MX","MXel fuerte",10,"2020-04-30 12:15:13",306.91,1012,19,306.91,306.91,800,"Clear","clear sky","01d",1.92,217,0,NA,1588266913,"El Fuerte",-108.62,26.42,"MX",-21600,1588250221,1588297561,304.84,1012,1003
"394",4011469,"Puebla",32.564442,-115.353333,"MX","MXpuebla",11,"2020-04-30 12:15:13",301.08,1010,42,300.15,302.15,803,"Clouds","broken clouds","04d",2.6,140,75,16093,1588266913,"Puebla",-115.35,32.56,"MX",-25200,1588251291,1588299721,300.46,NA,NA
"396",4022970,"Victoria",21.210831,-100.211937,"MX","MXvictoria",13,"2020-04-30 12:15:13",296.4,1030,42,293.15,298.15,800,"Clear","clear sky","01d",4.6,80,5,12874,1588266913,"Victoria",-100.21,21.21,"MX",-18000,1588248618,1588295128,293.12,NA,NA
